,Fuel Type Code,Station Name,Street Address,City,State,ZIP,Station Phone,lat,lon,Date Last Confirmed,EV Connector Types
0,LPG,Irish Propane,70 Katherine St,Buffalo,NY,14210,716-852-3335,42.8594,-78.858933,2014-04-04,
1,ELEC,Latitudes,2401 Highway 528,Rio Rancho,NM,87124,505-369-7777,35.21843,-106.663,2014-02-05,J1772
2,ELEC,American Bush - Public Access,2630 S 300 W,Salt Lake City,UT,84115,801-467-0700,40.714419899999996,-111.90010500000001,2013-09-25,J1772
3,ELEC,CITY OF SEATTLE,600 Pine St,Seattle,WA,98101,888-758-4389,47.6125141,-122.3354092,2014-08-11,J1772
4,ELEC,Two Embarcadero Center,Two Embarcadero Center A Level Parking,San Franciso,CA,94111,800-663-5633,37.79502720000001,-122.39850030000001,2014-08-11,J1772
5,ELEC,PARKWAY,721 Arch St,Philadelphia,PA,19106,888-758-4389,39.9528732,-75.1528625,2014-08-11,J1772
6,ELEC,General Electric - Dallas Office,2508 Highlander Way,Carrollton,TX,75006,,32.9838,-96.84531700000001,2014-04-04,J1772
7,ELEC,Municipal Lot,38767 SE River St,Snoqualmie,WA,98065,888-998-2546,47.527427,-121.823532,2014-08-11,J1772
8,LPG,U-Haul,15173 Brookpark Rd,Brookpark,OH,44142,216-676-4770,41.418059,-81.802714,2014-03-06,
9,ELEC,GATEWAY TECH B,380 McCanna Pkwy,Burlington,WI,53105,888-758-4389,42.672790500000005,-88.2556,2014-08-11,NEMA520 J1772
10,ELEC,NATIONAL GRID,104-160 Blackstone St,Providence,RI,2905,888-758-4389,41.8096008,-71.40885290000001,2014-08-11,J1772
11,ELEC,San Francisco General Hospital Garage,2500 24th St,San Francisco,CA,94110,415-206-8770,37.753135,-122.404374,2012-12-31,J1772
12,ELEC,Amazon - Obidos/Rufus,550 Terry Ave N,Seattle,WA,98109,888-998-2546,47.62395,-122.337078,2014-08-11,J1772
13,ELEC,Classic Cars Nissan,1513 Route 38,Hainesport,NJ,8036,609-267-2886,39.98225,-74.808612,2014-04-21,J1772
14,LPG,U-Haul,2722 N Watkins,Memphis,TN,38127,901-353-2051,35.199728,-90.007121,2014-08-05,
15,ELEC,"Walgreens - Clinton, UT #2519",1962 W 1800 N,Clinton,UT,84041,800-663-5633,41.139868799999995,-112.0632572,2014-08-11,J1772
16,ELEC,MERCER ISLAND,8236 SE 24TH STREET,Mercer Island,WA,98040,888-758-4389,47.5900154,-122.22854609999999,2014-08-11,NEMA520 J1772
17,ELEC,NATIONAL GRID,997 Loudon Rd,Cohoes,NY,12047,888-758-4389,42.770945000000005,-73.753012,2014-08-11,J1772
18,LPG,AmeriGas,1706 Fairgrounds Dr,Mountain Home,AR,72653,870-425-2121,36.3218571,-92.3838926,2014-04-04,
19,BD,East Side Travel Plaza,607 Gateway Dr,East Grand Forks,MN,56721,218-773-4345,47.9375198,-97.01454840000001,2014-03-06,
20,ELEC,AUTO CLUB GROUP,783 S Orlando Ave,Winter Park,FL,32789,888-758-4389,28.5909042,-81.3660965,2014-08-11,NEMA520 J1772
21,CNG,Greater Richmond Transit Co,301 E Belt Blvd,Richmond,VA,23224,800-920-1166,37.50673099999999,-77.47908000000001,2014-08-05,
22,ELEC,Ehrlich Nissan,2625 25th Ave,Greeley,CO,80634,970-353-5333,40.3946842,-104.7220636,2014-04-21,J1772 CHADEMO
23,ELEC,Outpost Solar - Mines Road,1905 Mines Road,Pulaski,TN,38478,888-998-2546,35.210144,-87.054365,2014-08-11,J1772
24,CNG,SDG&E - Northern (Carlsbad),602 Cannon Rd,Carlsbad,CA,92008,213-244-5681,33.1336848,-117.33212320000001,2014-05-02,
25,ELEC,CITYZEPHYRHILLS,5335 Eighth St,Zephyrhills,FL,33542,888-758-4389,28.2352886,-82.1812439,2014-08-11,NEMA520 J1772
26,ELEC,Atlantic Nissan,205 Sunrise Hwy,West Islip,NY,11795,631-587-0700,40.720647,-73.304128,2014-04-21,J1772
27,LPG,U-Haul,157 E 3rd St,Williamsport,PA,17701,570-326-5161,41.242703000000006,-76.998402,2014-08-05,
28,ELEC,Dan Wilder Nissan,97 Deer Park Rd,Port Angeles,WA,98362,360-452-9268,48.102884,-123.342597,2014-04-21,J1772
29,LPG,Sierra Propane,447 E Main St,Springerville,AZ,85938,928-333-5550,34.1328336,-109.28092649999999,2013-02-28,
30,ELEC,Port of San Diego-Imperial Beach Parking Lot,"3165 Pacific Highway, Palm Avenue & Seacoast Drive",Imperial Beach,CA,91932,888-998-2546,32.5839,-117.13171799999999,2014-08-11,J1772
31,E85,Western Convenience Store,2387 W 72nd Ave,Denver,CO,80221,303-429-5754,39.82763679999999,-105.0152257,2013-10-31,
32,E85,Kroger #587,3939 Frankford Rd,Dallas,TX,75287,972-662-1000,32.99823189999999,-96.84608730000001,2014-03-06,
33,ELEC,THE BOEING CO,2060 E.Imperial Highway,El Segundo,CA,90245,888-758-4389,33.92830120000001,-118.38964990000001,2014-08-11,J1772
34,ELEC,Kroger Store #518,5665 E. Mockingbird,Dallas,TX,75206,888-998-2546,32.837337,-96.77053599999999,2014-08-11,J1772
35,E85,Marathon,323 Sagamore Pkwy,Lafayette,IN,47904,765-447-3827,40.420134000000004,-86.857658,2014-07-02,
36,E85,Mobil On the Run,1710 N Bishop Ave,Rolla,MO,65401,573-364-5404,37.9583377,-91.7728715,2014-06-03,
37,E85,Stop & Shop,312 1st Ave,Shakopee,MN,55379,952-496-3686,44.7981513,-93.53001440000001,2013-12-31,
38,ELEC,15 LLC,"3575 Piedmont Road, Building 15",Atlanta,GA,30305,888-998-2546,33.852522,-84.380658,2014-08-11,J1772
39,ELEC,Waikiki Sand Villa,2375 Ala Wai Blvd,Honolulu,HI,96815,808-922-4744,21.278842,-157.823158,2014-05-02,J1772
40,E85,Holbrook T & C Citgo,5665 Sunrise Hwy,Holbrook,NY,11741,631-567-0576,40.768313899999995,-73.071263,2014-04-04,
41,E85,Watonwan Farmers Service Co,702 E 14th St,Blue Earth,MN,56013,507-526-2100,43.6304107,-94.09394870000001,,
42,E85,Thorntons #307,110 W Devon Ave,Wood Dale,IL,60191,630-616-0993,41.992429,-87.980958,2013-10-31,
43,ELEC,Loyola University - New Orleans,7214 Saint Charles Ave,New Orleans,LA,70115,,29.937189899999996,-90.1268944,2014-04-21,J1772
44,CNG,Con Edison - College Point Service Center,124-15 31st Ave,Queens,NY,11354,718-321-4608,40.7678,-73.845925,2014-04-04,
45,ELEC,RENAISSANCE TWR,1201 Pacific Ave,Dallas,TX,75223,888-758-4389,32.7819816,-96.8019686,2014-08-11,J1772
46,ELEC,Piolax,139 Etowah Industrial Court,Canton,GA,30114,888-998-2546,34.2455859,-84.471847,2014-08-11,J1772
47,ELEC,Court Street Ford,558 William Latham Sr Dr,Bourbonnais,IL,60914,815-939-9600,41.161794,-87.885165,2013-12-31,J1772
48,BD,Piedmont Biofuels - Carrboro Public Works,100 Public Works Dr,Carrboro,NC,27510,919-321-8260,35.939414,-79.05699399999999,2014-07-02,
49,ELEC,Roush - Naples,3538 Plover Ave,Naples,FL,34117,888-998-2546,26.15823,-81.674971,2013-11-25,J1772
50,E85,Super Pantry #50,1940 S MacArthur Blvd,Springfield,IL,62704,217-522-0807,39.7795424,-89.6682571,2013-10-31,
51,LPG,U-Haul,75 Division St,Danbury,CT,6810,203-794-9435,41.391202,-73.45841800000001,2014-04-04,
52,ELEC,Brown & Howell LLC Sunbrite Corner,1590 E Bethany Home Road,Phoenix,AZ,85014,888-998-2546,33.523943100000004,-112.04788980000001,2014-08-11,J1772
53,ELEC,Ken Ganley Nissan,5180 Montville Dr,Medina,OH,44256,330-721-0500,41.134257,-81.793779,2014-04-21,J1772
54,ELEC,KIRKLAND,348 Kirkland Ave,Kirkland,WA,98033,888-758-4389,47.6757469,-122.20297240000002,2014-08-11,NEMA520 J1772
55,LPG,Blossman Gas Inc,102 Mississippi Dr,Waynesboro,MS,39367,601-735-2522,31.663926399999998,-88.6283224,2014-06-03,
56,LPG,Ferrellgas,310 Morrow Rd,Sand Springs,OK,74063,918-245-6617,36.133604600000005,-96.11798909999999,2014-08-05,
57,ELEC,Honda Motorwerks,500 4th St,LaCrosse,WI,54601,608-784-9280,43.808262,-91.252255,2013-11-30,J1772
58,LPG,Ron's Car Care & Propane Services,1241 E Central Ave,Miamisburg,OH,45342,937-866-4925,39.6403804,-84.2657791,2014-06-03,
59,ELEC,SCANSOURCE,6 Logue Ct,Greenville,SC,29615,888-758-4389,34.8554115,-82.24766540000002,2014-08-11,NEMA520 J1772
60,E85,Holiday Stationstore #3558,241 US Highway 8,Almena,WI,54805,715-357-3957,45.4096385,-92.0345747,2013-10-31,
61,E85,Meijer Gas #253,7149 E Saginaw St,East Lansing,MI,48823,517-885-9029,42.7704045,-84.41940149999998,2014-05-02,
62,E85,Kroger Fuel Center #355,3760 Paxton Ave,Cincinnati,OH,45209,513-871-4142,39.144518700000006,-84.43012089999998,2014-03-06,
63,E85,Suzy-Q's Fast Stop,202 Emminga Rd,Golden,IL,62339,217-696-2777,40.108233,-91.02834399999999,2013-10-31,
64,LPG,AmeriGas,1118 E 5th St,Hawthorne,NV,89415,775-945-3335,38.5244559,-118.61697749999999,2013-02-28,
65,ELEC,Round Rock Nissan,3050 N IH-35,Round Rock,TX,78681,512-244-8500,30.54205,-97.69265,2014-04-21,J1772
66,ELEC,Grapevine Recreational Area,Daltons Drive,Grapevine,TX,76051,888-998-2546,32.979103,-97.054467,2014-08-11,J1772
67,E85,Kwik Trip #662,3145 Dodd Rd,Eagan,MN,55121,651-405-8543,44.843626,-93.123586,2014-05-02,
68,ELEC,Roberts Motors,4350 N Alby St,Alton,IL,62002,618-466-7220,38.9217295,-90.17955970000001,2013-04-30,J1772
69,CNG,AMP Americas,1606 Exchange Pkwy,Waco,TX,76712,312-300-6700,31.5008835,-97.1734173,2014-07-21,
70,BD,Propel Fuels - 76,1850 E Holt Blvd,Ontario,CA,91761,909-467-1809,34.063173299999995,-117.6113105,2013-11-30,
71,ELEC,Lafontaine Nissan,2530 E Highland Rd,Highland,MI,48356,248-887-8900,42.652932,-83.580487,2014-04-21,J1772
72,LPG,Ferrellgas,1313 Eisenhower Rd,Norfolk,NE,68701,402-895-2344,42.061654299999994,-97.42695079999999,2014-06-03,
73,ELEC,San Joaquin Valley Air Pollution Control District,1990 E Gettysburg Ave,Fresno,CA,93726,559-230-6000,36.801411,-119.7881,2013-11-25,J1772
74,ELEC,Nemet Motors,153-03 Hillside Ave,Jamaica,NY,11432,718-523-5858,40.70751679999999,-73.8045108,2014-04-21,J1772
75,ELEC,Mesa Main Library,64 E. 1st Street,Mesa,AZ,85201,888-998-2546,33.417273,-111.83048400000001,2014-08-11,J1772
76,ELEC,Napleton Nissan,1301 Indianapolis Blvd,Schererville,IN,46375,219-865-3800,41.4976735,-87.47097120000001,2014-04-21,J1772
77,ELEC,"Spectrum Court, LLC",15433 N. Tatum Blvd.,Phoenix,AZ,85032,888-998-2546,33.62729,-111.97726200000001,2014-08-11,J1772
78,ELEC,Nissan of Oakland,2735 Broadway,Oakland,CA,94611,510-588-2200,37.820419,-122.261344,2014-06-03,J1772 CHADEMO
79,ELEC,UMKC,5001 Oak St,Kansas City,MO,64110,888-758-4389,39.035998,-94.581594,2014-08-11,J1772
80,ELEC,Umstead Hotel and Spa,100 Woodland Pond Dr,Cary,NC,27513,866-877-4141,35.82973,-78.7646,2014-08-05,J1772
81,ELEC,Nissan of Bergenfield,318 S Washington Ave,Bergenfield,NJ,7621,201-385-3600,40.917268299999996,-73.99720529999999,2014-04-21,J1772
82,ELEC,Peruzzi Nissan,165 Lincoln Hwy,Fairless Hills,PA,19030,215-943-6200,40.181931,-74.863403,2014-04-21,J1772
83,E85,Meijer Gas #167,2752 Alison Ln,Jeffersonville,IN,47130,812-218-6629,38.322866999999995,-85.70947699999998,2014-05-02,
84,ELEC,Westar Energy - Lawrence Energy Center,1250 N 1800 Rd,Lawrence,KS,66049,,39.006794899999996,-95.269499,2013-11-30,J1772
85,CNG,Con Edison - Eastview Service Center,315 Old Saw Mill River Rd,Valhalla,NY,10595,914-789-6723,41.08338699999999,-73.82378790000001,2014-04-04,
86,ELEC,Serramonte Nissan,650 Serramonte Blvd,Colma,CA,94014,650-994-1661,37.675806,-122.46127299999999,2014-04-21,J1772
87,LPG,Triple B Home Center,1315 S Hamilton St,Sullivan,IL,61951,217-728-2349,39.5857114,-88.6091442,2013-02-28,
88,ELEC,TOWNOFHEMPSTEAD,Lido Blvd,Point Lookout,NY,11561,888-758-4389,40.5924759,-73.5844193,2014-08-11,NEMA520 J1772
89,ELEC,INTUIT INC,21215 Burbank Blvd,Los Angeles,CA,91367,888-758-4389,34.1738849,-118.59311629999999,2014-08-11,J1772
90,CNG,Domino Express #9,1303 W 3rd St,Elk City,OK,73644,,35.4117249,-99.419721,2014-08-05,
91,ELEC,The Mill Casino,3201 Tremont Ave,North Bend,OR,97459,800-953-4800,43.394667600000005,-124.21955439999999,2014-05-02,J1772
92,LPG,U-Haul,1011 Highway 14,Lake Charles,LA,70601,337-436-5014,30.2250294,-93.1800662,2014-04-04,
93,ELEC,Coggin Nissan at the Avenues,10859 Philips Hwy,Jacksonville,FL,32256,904-880-3000,30.1725503,-81.5452976,2014-05-02,J1772
94,LPG,Heritage Propane,4504 E Lamar Alexander Pkwy,Walland,TN,37886,865-977-6777,35.747741600000005,-83.8371242,2014-08-05,
95,ELEC,POMONA COLLEGE,E 1st St,Claremont,CA,91711,888-758-4389,34.094818100000005,-117.71092220000001,2014-08-11,NEMA520 J1772
96,CNG,AT&T,100 W Alondra Rd,Gardena,CA,90248,,33.884128999999994,-118.277308,2013-07-31,
97,ELEC,NATIONAL GRID,222 Richmond St,Providence,RI,2903,888-758-4389,41.819064000000004,-71.408276,2014-08-11,J1772
98,E85,Vandenberg Air Force Base,306 8th St,Santa Barbara,CA,93437,,34.7232998,-120.5356382,2014-08-05,
99,CNG,Encana - Plano,5851 Legacy Cir,Plano,TX,75024,,33.0806397,-96.82270150000001,2014-07-03,
100,ELEC,CITYOFSANTAROSA,97 D St,Santa Rosa,CA,95404,888-758-4389,38.439413200000004,-122.7112405,2014-08-11,NEMA520 J1772
101,ELEC,Spartanburg Municipal Parking Garage,130 E Saint John St,Spartanburg,SC,29306,843-743-6736,34.9520415,-81.9315933,2012-07-31,J1772
102,E85,Elgin One Stop,501 N 2nd St,Elgin,NE,68636,402-843-2100,41.9801347,-98.0845445,2014-06-03,
103,ELEC,Chatsworth Metrolink Station,10046 Old Depot Plaza Rd,Chatsworth,CA,91311,800-371-5465,34.253386799999994,-118.5988554,2012-12-31,J1772
104,ELEC,Embassy Suites Frisco Hotel & Convention Center --- South Parking Lot,7600 John Q Hammons Drive,Frisco,TX,75034,888-998-2546,33.099784,-96.81732,2014-08-11,J1772
105,ELEC,CARCHARGING,1 Pennsylvania Plaza,New York,NY,10119,888-758-4389,40.75147,-73.9927795,2014-08-11,NEMA520 J1772
106,ELEC,EV CHARGER,64-74 NV-592,Las Vegas,NV,89109,888-758-4389,36.1153633,-115.16997240000002,2014-08-11,J1772
107,BD,Forest Service - Cleveland National Forest,Cleveland National Forest,Santa Ysabel,CA,92070,,33.212382,-116.71063899999999,2014-08-05,
108,BD,City of Phoenix - Fire Station #59,1111 S 65th Ave,Phoenix,AZ,85043,,33.4379359,-112.1982409,2013-10-31,
109,ELEC,Google,1842 N Shoreline Blvd,Mountain View,CA,94043,,37.41968918,-122.0785,2013-11-30,J1772
110,CNG,NGV Solutions LLC,5495 Lakeland Dr,Flowood,MS,39232,601-982-1244,32.350721,-90.030272,2014-04-04,
111,ELEC,OUC,65 W Washington St,Orlando,FL,32801,888-758-4389,28.544092,-81.380449,2014-08-11,NEMA520 J1772
112,E85,Kroger Fuel Center #844,175 Lancaster Pike,Circleville,OH,43113,740-477-5700,39.5989347,-82.93229889999998,2014-03-06,
113,ELEC,MBTA,280 Ivory St,Braintree,MA,2184,888-758-4389,42.205989,-71.00079199999998,2014-08-11,J1772
114,ELEC,Hilton La Jolla Torrey Pines,10950 North Torrey Pines Road,La Jolla,CA,92037,888-998-2546,32.9015358,-117.24377140000001,2014-08-11,J1772
115,E85,Kum & Go #240,530 North Ave,Norwalk,IA,50211,515-981-0617,41.475025,-93.68187,2014-03-06,
116,ELEC,John Elway Chevrolet - Voltec,5200 S Broadway,Englewood,CO,80113,,39.621219,-104.986672,2013-12-31,NEMA520
117,E85,Citgo - Tiger Gas,7901 S Natchez,Burbank,IL,60459,708-430-3895,41.748129,-87.782278,2013-10-31,
118,ELEC,Benton Nissan,1834 US Highway 78 E,Oxford,AL,36203,256-831-8882,33.6148266,-85.79992309999999,2014-05-02,J1772
119,ELEC,350GREEN,1251 US Highway 31 N,Greenwood,IN,46142,888-758-4389,39.6338234,-86.1242065,2014-08-11,J1772
120,ELEC,Concordville Nissan,452 Wilmington W Chester Pike,Glen Mills,PA,19342,610-459-8900,39.86583710000001,-75.5442656,2014-04-21,J1772
121,BD,National Grid - Westborough,25 Research Dr,Westborough,MA,1581,,42.287238200000004,-71.5770683,2014-04-04,
122,HY,Kaneohe Marine Base,370 3rd St,Kaneohe Bay,HI,96863,,21.44651,-157.76176999999998,2014-08-05,
123,ELEC,FREEDOM NISSAN,1095 Shelburne Road,South Burlington,VT,5403,888-758-4389,44.4388342,-73.21090579999999,2014-08-11,CHADEMO
124,E85,Speedway #5491,18799 Fort St,Riverview,MI,48193,734-282-4196,42.170846999999995,-83.188294,2014-03-06,
125,ELEC,El Dorado County Government Center,2850 Fairlane Ct,Placerville,CA,95667,530-621-5300,38.727990000000005,-120.82799999999999,2013-12-31,J1772
126,ELEC,Santa Clara University - Leavey Lot,500 S El Camino Real,Santa Clara,CA,95050,888-758-4389,37.34946442,-121.93430330000001,2012-07-31,NEMA520 J1772
127,LPG,Martin LP Gas,5553 Highway 300,Longview,TX,75604,903-759-5250,32.5804954,-94.81231600000001,2013-02-28,
128,ELEC,Crowley Nissan,1451 Farmington Ave,Bristol,CT,6010,860-944-7766,41.6992932,-72.8956037,2014-04-21,J1772
129,LPG,AmeriGas,163 Railroad Ave SW,New Albin,IA,52160,563-544-4200,43.495994700000004,-91.2917817,2014-04-04,
130,LPG,Ferrellgas - Andrews Shell,9060 W Northern Ave,Glendale,AZ,85305,602-278-8511  877-234-1722,33.552254,-112.254324,2013-05-31,
131,E85,United Western Co-op,3165 US Highway 30,Woodbine,IA,51579,712-647-2511,41.727864000000004,-95.702833,2014-04-04,
132,ELEC,UM PTS,646 W Pratt St,Baltimore,MD,21201,888-758-4389,39.286313799999995,-76.6251238,2014-08-11,NEMA520 J1772
133,LPG,U-Haul,1420 Blizzard Dr,Parkersburg,WV,26101,304-485-6220,39.243167,-81.552325,2014-07-02,
134,ELEC,Panera Bread - Tesla,3260 Niles Rd,Saint Joseph,MI,49085,877-798-3752,42.056717,-86.456695,2014-04-21,TESLA
135,E85,Kwik Trip #485,6 W Hidden Tr,Elkhorn,WI,53121,262-723-7179,42.694575,-88.54249,2014-05-02,
136,LPG,Herring Gas Co,309 S 10th Ave,Laurel,MS,39440,601-428-7185,31.6870189,-89.1386445,2014-06-03,
137,LNG,Burrtec Waste,9820 Cherry Ave,Fontana,CA,92335,,34.07585,-117.48891909999999,2014-05-02,
138,BD,DC Department of Public Works - MPD 3rd District,1620 V St NW,Washington,DC,20009,,38.917766,-77.037726,2013-10-31,
139,E85,Fanco,103 Comfort Dr,Jacksonville,IL,62650,217-243-3400,39.6923323,-90.2287682,2013-10-31,
140,LPG,Penman Conoco Service,609  E Main St,Knox City,TX,79529,940-658-3513,33.4180937,-99.8129655,2013-02-28,
141,ELEC,CARCHARGING,610 Exterior St,Bronx,NY,10451,888-758-4389,40.8205131,-73.9301496,2014-08-11,J1772 NEMA520
142,ELEC,WEST GERMAN BMW,500 Pennsylvania Ave,Fort Washington,PA,19034,888-758-4389,40.134012,-75.2074839,2014-08-11,J1772
143,LNG,Clean Energy - Jacksonville,440-1 Lane Ave S,Jacksonville,FL,32254,866-809-4869,30.3243386,-81.7518892,2014-04-04,
144,ELEC,Pearson Ford,10650 N Michigan Rd,Zionsville,IN,46077,317-873-3333,39.9416571,-86.2372927,2013-07-25,J1772
145,ELEC,IRL WEST RAMP,909 E 2nd Ave,Coralville,IA,52241,888-758-4389,41.682581,-91.5626321,2014-08-11,NEMA520 J1772
146,ELEC,ABBERLYCROSSING,9698 Patriot Crossing,Ladson,SC,29456,888-758-4389,32.9555017,-80.11664990000001,2014-08-11,J1772
147,LPG,Port Washington Street Department,333 N Moore Rd,Port Washington,WI,53074,,43.3875661,-87.879509,2014-06-03,
148,E85,Qik-n-EZ #62,1607 Morrissey Dr,Bloomington,IL,61704,309-661-0524,40.4589719,-88.9699779,2013-12-31,
149,ELEC,"Walgreens - Lutherville, MD #12847",1801 York Road,Lutherville,MD,21093,800-663-5633,39.430637700000005,-76.6208506,2014-08-11,J1772
150,ELEC,350GREEN,6170 W. Grand,Gurnee,IL,60031,888-758-4389,42.3897247,-87.955513,2014-08-11,J1772
151,ELEC,Kroger Store #308,11003 Shadow Creek Pkwy,Pearland,TX,77584,888-998-2546,29.583886,-95.387923,2014-08-11,J1772
152,E85,Beaufort Marine Corps Air Station,Moore St,Beaufort,SC,29904,,32.461238,-80.710684,2014-08-05,
153,ELEC,Bloomingdale Court Shopping Center,396 W Army Trail Rd,Bloomingdale,IL,60108,847-577-3572,41.938396000000004,-88.112679,2013-12-31,J1772
154,CNG,New York State Department of Transportation,730A Chemung St,Horseheads,NY,14845,,42.157555,-76.829942,2014-04-04,
155,E85,Pawnee Corner - Shell - Sunshine Energy,1535 E Pawnee,Wichita,KS,67216,316-295-4535,37.649569,-97.31897099999999,2013-09-30,
156,ELEC,Lynchburg Nissan,18588 Forest Rd,Forest,VA,24551,434-385-7733,37.386097,-79.244054,2014-05-02,J1772
157,LPG,INDOT - 71st Street Maintenance Unit,7160 Lafayette Rd,Indianapolis,IN,46278,,39.882517,-86.294341,2013-08-31,
158,ELEC,Waikiki Beach Marriott,2552 Kalakaua Ave,Honolulu,HI,96815,888-833-2148  808-922-6611,21.2731229,-157.822788,2014-05-02,J1772
159,LPG,O'Neal Gas,901 N Louisiana St,Plain Dealing,LA,71064,318-326-5556,32.912526799999995,-93.7047267,2014-04-04,
160,CNG,Clean Energy - Fontana Truck Stop,14226 Valley Blvd,Fontana,CA,92335,866-809-4869,34.0708706,-117.49434640000001,2014-05-02,
161,ELEC,SPARTAN STORES,2260 Gezon Parkway,Wyoming,MI,49519,888-758-4389,42.8607593,-85.716702,2014-08-11,NEMA520 J1772
162,ELEC,CELEBRATION,1999 Central Park Dr,Okemos,MI,48864,888-758-4389,42.727346000000004,-84.421766,2014-08-11,J1772
163,ELEC,Woodland Gateway Shopping Center,County Rd 102 & Maxwell Ave,Woodland,CA,95776,916-442-4600,38.668735999999996,-121.7287,2013-12-31,NEMA520 J1772
164,ELEC,NATIONAL GRID,Suny at Albany,Albany,NY,12222,888-758-4389,42.6883686,-73.82306659999999,2014-08-11,J1772
165,ELEC,WHOLE FOODS MKT,1150 Ocean Ave,San Francisco,CA,94112,888-758-4389,37.723830799999995,-122.45478119999999,2014-08-11,J1772
166,ELEC,Loring Ramp,1330 Nicollet Ave,Minneapolis,MN,55403,612-455-0702,44.969832399999994,-93.27782490000001,2014-03-06,NEMA520
167,E85,Cenex - Ampride C-Store,409 E 4th St,Ainsworth,NE,69210,402-387-0144,42.549879600000004,-99.8580685,2014-06-03,
168,E85,Stop In Food Stores #67,1220 Seminole Tr,Charlottesville,VA,22901,434-973-1005,38.070130999999996,-78.485182,2013-11-30,
169,ELEC,NRG eVgo - Walgreens Freedom Station,130 N Oakridge Dr,Hudson Oaks,TX,76087,877-455-3833,32.757740000000005,-97.71054000000001,2014-07-03,NEMA520 J1772 CHADEMO
170,E85,FSC Mart - Godfather's,408 6th St,Corning,IA,50841,641-322-3488,40.9880799,-94.7332596,2014-04-04,
171,ELEC,Lodi Animals Service and Shelter,1345 W Kettleman Ln,Lodi,CA,95242,209-333-6815,38.115533899999996,-121.28893810000001,2013-05-31,J1772
172,ELEC,I-64 East Rest Stop,I-64 E and VA-155,Providence Forge,VA,23140,800-367-7623,37.499039,-77.04316,2013-12-31,NEMA520
173,BD,Daily's #7111,5272 Cane Ridge Rd,Nashville,TN,37013,615-731-4063,36.045435,-86.6613932,2014-08-05,
174,ELEC,Suntek Business Center - NPM,9450 SW Barnes Rd,Portland,OR,97086,888-998-2546,45.508691999999996,-122.774947,2014-08-11,J1772
175,LPG,U-Haul,1900 E Milwaukee St,Janesville,WI,53545,608-756-3980,42.691925399999995,-88.99951479999999,2013-10-31,
176,ELEC,Fairview Town Hall,372 Town Place,Fairview,TX,75069,888-998-2546,33.13232,-96.64707,2014-08-11,J1772
177,ELEC,Wright Automotive Group,10520 Perry Hwy,Wexford,PA,15090,724-935-4646,40.610479,-80.05303599999999,2014-04-21,J1772
178,ELEC,Bert Ogden Nissan,721 N Jackson Rd,McAllen,TX,78501,956-631-6666,26.206789399999998,-98.203314,2014-04-21,J1772
179,E85,Pennsylvania Turnpike North Somerset Service Plaza - Sonoco,169 N Plaza Access Rd,Somerset,PA,15501,814-444-1746,40.00178,-79.046458,2014-08-05,
180,ELEC,Maroone Nissan of Pembroke Pines,8890 Pines Blvd,Pembroke Pines,FL,33024,954-433-3400,26.007358,-80.263072,2014-05-02,J1772
181,ELEC,SIEMENS,200-398 Technology Dr,Alpharetta,GA,30005,888-758-4389,34.118141200000004,-84.2180176,2014-08-11,NEMA520 J1772
182,ELEC,Staunton Nissan,297 Lee Jackson Hwy,Staunton,VA,24401,540-886-3465,38.1185725,-79.0687636,2014-04-21,J1772
183,ELEC,City of Raleigh - Police Fleet Station,6716 Six Forks Rd,Raleigh,NC,27601,919-996-3030,35.872238,-78.641278,2014-07-03,NEMA520 J1772
184,CNG,GreenTeam - San Jose CA,1333 Oakland Rd,San Jose,CA,95112,800-920-1166,37.3685305,-121.89305060000001,2014-05-02,
185,E85,Meijer Gas #137,4901 State Route 26 E,Lafayette,IN,47905,765-449-9229,40.415445,-86.81237899999998,2014-05-02,
186,LPG,U-Haul,4767 Hamilton Ave,Cincinnati,OH,45223,513-542-6300,39.178939,-84.545326,2014-03-06,
187,E85,BP,5830 E 10 Mile Rd,Warren,MI,48091,586-759-4884,42.476809,-83.045964,2014-07-03,
188,E85,Kum & Go #155,21510 Highway 365 N,Maumelle,AR,72113,501-851-2536,34.8838622,-92.3921179,2014-03-06,
189,ELEC,Camden County Regional Library - Bellmawr Branch,35 East Browning Road,Bellmawr,NJ,8031,888-998-2546,39.8665027,-75.0775904,2014-08-11,J1772
190,ELEC,ACUA - Wastewater: 1801 Absecon Blvd (Route 30),1801 Absecon Blvd,Atlantic City,NJ,8401,888-998-2546,39.382109,-74.449067,2014-08-11,J1772
191,ELEC,FARMERS BANK,1590 4th St,Minden,NV,89423,888-758-4389,38.9536037,-119.76351170000001,2014-08-11,J1772
192,ELEC,CSU FULLERTON,800 N. State College,Fullerton,CA,92831,888-758-4389,33.87945870000001,-117.883179,2014-08-11,CHADEMO
193,ELEC,NATIONAL GRID,257 College of Nanoscale Science and EngineeringFuller Rd,Albany,NY,12203,888-758-4389,42.6899118,-73.8317353,2014-08-11,J1772
194,ELEC,Claire's on Cedros,246 North Cedros Avenue,Solana Beach,CA,92075,888-998-2546,32.994847,-117.271096,2014-08-11,J1772
195,ELEC,Port City Nissan,120 Spaulding Tpke,Portsmouth,NH,3801,603-431-6500,43.0772236,-70.7851839,2014-04-21,J1772
196,ELEC,Progress Energy - Asheville,555 Brevard Rd,Asheville,NC,28806,,35.55555,-82.601481,2012-07-31,J1772
197,ELEC,Ameren Missouri,1901 Chouteau Ave,St. Louis,MO,63166,,38.622710999999995,-90.209564,2014-06-03,NEMA520 J1772
198,ELEC,UCR,900 University Ave,Riverside,CA,92507,888-758-4389,33.97009310000001,-117.3271078,2014-08-11,J1772
199,ELEC,Hilton Garden Inn Midtown,97 10th St NW,Atlanta,GA,30309,404-524-4006,33.7819521,-84.39030890000001,2014-08-05,NEMA520
200,LPG,Sunoco - Circle A Mart #111,1921 S Lube Way,Jasper,IN,47546,812-634-7827,38.364496,-86.9410089,2014-07-03,
201,CNG,Apache Woodward,5101 Williams Ave,Woodward,OK,73801,713-296-7479,36.405933700000006,-99.3717023,2014-04-04,
202,ELEC,Pacific View Mall,3295 E Main St,Ventura,CA,93003,805-642-5530,34.268,-119.2492,2013-12-31,J1772
203,ELEC,MGE,1701 Monroe Street,Madison,WI,53711,888-758-4389,43.0662594,-89.415062,2014-08-11,NEMA520 J1772
204,LPG,Veolia Environmental Services - Baltimore,2100 Huntingdon Ave,Baltimore,MD,21211,,39.313074,-76.620506,2012-01-31,
205,ELEC,Garland Animal Control,600 Tower Street,Garland,TX,75040,888-998-2546,32.906459600000005,-96.60372029999999,2014-08-11,J1772
206,ELEC,HY-VEE,3900 W 24th Pl,Lawrence,KS,66047,888-758-4389,38.9419594,-95.2893448,2014-08-11,J1772
207,ELEC,Kleiver Armory,10000 NE 33rd Dr,Portland,OR,97211,888-998-2546,45.594995000000004,-122.63519699999999,2014-08-11,J1772
208,E85,Agriland Fast Stop Express,1101 N Lincoln St,Knoxville,IA,50138,641-842-2116,41.3275018,-93.1094697,2014-04-04,
209,ELEC,"Walgreens - Bel Air, MD #12748",1201 East Churchville Rd,Bel Air,MD,21014,800-663-5633,39.5416769,-76.33007679999999,2014-08-11,J1772
210,E85,Meijer Gas #112,1990 W Main St,Troy,OH,45373,937-332-0529,40.0565432,-84.242228,2014-03-06,
211,BD,Georgia Power,200 Miller St,Valdosta,GA,31907,,32.3683002,-84.9557253,2013-09-30,
212,LPG,L&W Landscape,206 Troy-Schenectady Rd,Latham,NY,12110,518-783-8928,42.739613,-73.736467,2014-07-03,
213,ELEC,BEAM CHARGING,127 E 83rd St,Manhattan,NY,10028,888-758-4389,40.7778702,-73.95719150000001,2014-08-11,NEMA520 J1772
214,LPG,Suburban Propane,2929 Enon Rd,Enon,OH,45323,937-864-7327,39.883349,-83.93726590000001,2014-03-06,
215,ELEC,STATION 1,801 9th St NW,Washington,DC,20001,888-758-4389,38.9003119,-77.02360379999999,2014-08-11,J1772
216,E85,Flying J,4200 N I 90 Service Rd,Rapid City,SD,57709,605-342-5450,44.1037439,-103.1503175,2013-11-30,
217,LNG,Blu LNG - Maverick Travel Plaza,2550 S 1990 W,West Haven,UT,84401,801-952-2943  801-977-7252,41.22028299999999,-112.027794,2014-07-03,
218,CNG,Trillium - Shell Gas Station,4590 Fulton Industrial Blvd SW,Atlanta,GA,30336,678-741-5301,33.761355,-84.53591899999998,2014-08-05,
219,ELEC,City of Palm Springs - Convention Center,277 Avenida Caballeros,Palm Springs,CA,92262,760-323-8214,33.826218100000006,-116.5380375,2013-12-31,J1772
220,ELEC,Black Mountain Public Safety Building,102 Montreat Rd,Black Mountain,NC,28711,828-419-9350,35.61921800000001,-82.320192,2014-07-03,J1772
221,ELEC,CNTYOFRIVERSIDE,3535 12th St,Riverside,CA,92501,888-758-4389,33.9775658,-117.37515400000001,2014-08-11,J1772
222,E85,Thorntons #64,3909 Highway 31E,Clarksville,IN,47129,812-283-7881,38.320919,-85.751467,2014-07-03,
223,LPG,Jaysan Gas Service Inc,80 County Rd,East Freetown,MA,2717,508-763-2729,41.757214700000006,-70.9468373,2014-07-02,
224,LPG,AmeriGas,331 S Houston Lake Rd,Warner Robins,GA,31088,478-953-3900,32.611953,-83.679773,2013-03-31,
225,E85,Holiday Stationstore #317,2725 Campus Dr,Plymouth,MN,55441,763-551-2501,45.009465000000006,-93.44901290000001,2014-04-04,
226,ELEC,Naples Nissan,3640 Pine Ridge Rd,Naples,FL,34109,239-643-3800,26.2100255,-81.74412059999999,2014-05-02,J1772
227,BD,Carl's Junior 76 Station,2140 N Nimitz Hwy,Honolulu,HI,96819,808-848-0480,21.328201800000002,-157.8858304,2014-05-02,
228,E85,Kum & Go #880,Cimmaron Turnpike,Pawnee,OK,74058,918-454-2808,36.224779999999996,-96.79679200000001,2014-03-06,
229,CNG,Trillium CNG,1120 E Paige Ave,Tulare,CA,93274,800-920-1166,36.183105,-119.33040600000001,2014-08-05,
230,CNG,Clean Energy - Peoria Disposal Co - Public Access,1113 N Swords Ave,West Peoria,IL,61604,866-809-4869,40.702054700000005,-89.64196129999998,2014-04-04,
231,ELEC,11900 NE 1st Street Building G,"11900 NE 1st Street, Building G",Bellevue,WA,98007,888-998-2546,47.611519,-122.182197,2014-08-11,J1772
232,ELEC,Temple University - Health Sciences Center,3412-28 N Carlisle St,Philadelphia,PA,19140,888-998-2546,40.005165000000005,-75.1532359,2014-08-11,J1772
233,ELEC,BEAM CHARGING,300 E 34th St,Manhattan,NY,10016,888-758-4389,40.7444153,-73.9754868,2014-08-11,NEMA520 J1772
234,ELEC,BEVERLY HILLS,440 N Camden Dr,Beverly Hills,CA,90210,888-758-4389,34.0694251,-118.40446709999999,2014-08-11,NEMA520 J1772
235,ELEC,LHS #1,1280 Johnson Ave,San Jose,CA,95129,888-758-4389,37.300085100000004,-122.0062201,2014-08-11,J1772
236,LPG,Suburban Propane,10112 Harrison Rd,Harrison,OH,45030,513-367-4141,39.243408,-84.77776800000001,2014-03-06,
237,CNG,City of Phoenix,5204 E Thomas Rd,Phoenix,AZ,85018,,33.480648800000004,-111.9681422,2013-11-30,
238,E85,Speedway #3766,7940 Brookville Rd,Indianapolis,IN,46239,317-351-8752,39.750608,-86.026916,2014-03-06,
239,LPG,Peninsula Propane,1700 N Florida Mango Rd,West Palm Beach,FL,33409,,26.699009999999998,-80.0776,2012-05-31,
240,ELEC,Brickell Bay Tower,"1001 Brickell Bay Drive, Suite 130",Miami,FL,33131,888-998-2546,25.763679,-80.18956899999999,2014-08-11,J1772
241,ELEC,Newport Fashion Island,550 Newport Center Dr,Newport Beach,CA,92660,949-640-2916,33.615861200000005,-117.8711879,2012-12-31,
242,E85,RB's Food Shop,100 N 3rd St,Humphrey,NE,68642,402-923-0286,41.6917634,-97.48446,2014-06-03,
243,ELEC,CITYOFRIVERSIDE,3637 5th St,Riverside,CA,92501,888-758-4389,33.984508899999994,-117.3716379,2014-08-11,J1772
244,ELEC,Kohl's Store #685 Tucson,5850 W Arizona Pavillions Dr,Tucson,AZ,85743,888-998-2546,32.354898999999996,-111.087796,2014-08-11,J1772
245,ELEC,Benton Co - Fairgrounds,110 SW 53rd Street,Corvallis,OR,97333,888-998-2546,44.566857,-123.31291399999999,2014-08-11,J1772
246,ELEC,CARCHARGING,200 SW 1st Avenue,Fort Lauderdale,FL,33301,888-758-4389,26.1202393,-80.14433290000001,2014-08-11,NEMA520 J1772
247,E85,Chevron,2755 Clairmont Rd,Atlanta,GA,30329,404-321-2712,33.8375109,-84.31189499999999,2013-07-31,
248,ELEC,Courtesy Nissan,3700 N Point Dr,Stevens Point,WI,54481,715-341-2440,44.5402487,-89.5469867,2013-12-31,J1772
249,ELEC,Sokol Blosser Winery,5000 Sokol Blosser Lane,Dundee,OR,97115,800-663-5633,45.2471771,-123.0480541,2014-08-11,J1772
250,ELEC,East Community Center,700 Woodland Street,Nashville,TN,37206,888-998-2546,36.17203,-86.76222,2014-08-11,J1772
251,E85,Federal Correctional Institution - Bennettsville,696 Muckerman Rd,Bennettsville,SC,29512,,34.6737527,-79.724586,2014-08-05,
252,BD,Yocum Holiday #3871,2030 Eagle Creek Ln,Woodbury,MN,55129,651-998-1123,44.919239000000005,-92.901783,2014-03-06,
253,ELEC,Kum & Go #206,1725 NW 86th St,Clive,IA,50325,515-223-5367,41.607394899999996,-93.735915,2014-04-21,J1772
254,BD,Saxapahaw General Store,1735 Saxapahaw-Bethlehem Church Rd,Saxapahaw,NC,27340,336-376-5332,35.946531,-79.31833499999998,2014-07-02,
255,ELEC,Garfield Park Library,2502 Shelby St,Indianapolis,IN,46203,888-235-4976,39.732171,-86.140045,2014-07-03,J1772
256,E85,Dover Air Force Base,10th St,Dover,DE,19902,,39.1266755,-75.47671009999999,2014-08-05,
257,ELEC,Eugene - Broadway Garage South,255 W. Broadway,Eugene,OR,97401,888-998-2546,44.049484,-123.095913,2014-08-11,J1772
258,ELEC,White Parking Lot,108 Clinton St,Charlevoix,MI,49720,231-547-3273,45.3170474,-85.2589168,2014-06-03,J1772
259,E85,BP,31331 S Wixom Rd,Wixom,MI,48393,248-624-0900,42.5234979,-83.53595909999999,2014-05-02,
260,ELEC,PLUGNEVERYWHERE,12138 N Lamar Blvd,Austin,TX,78753,888-758-4389,30.399122700000003,-97.67948929999999,2014-08-11,NEMA520 J1772
261,LPG,Dowdle Gas Co,38133 State Highway 75 S,Fyffe,AL,35971,256-659-4422,34.400583000000005,-85.96937199999999,2013-02-28,
262,ELEC,CARCHARGING,400 W 12th St,New York,NY,10014,888-758-4389,40.73753749999999,-74.0098297,2014-08-11,J1772
263,ELEC,HENNEPIN COUNTY,501-531 5th St N,Minneapolis,MN,55401,888-758-4389,44.9836162,-93.2785986,2014-08-11,J1772
264,BD,Pacific Pride,19020 63rd Ave NE,Arlington,WA,98223,800-950-3835,48.1686092,-122.14598159999998,2014-03-06,
265,LPG,Gresham Petroleum Co,415 Pershing Ave,Indianola,MS,38751,662-884-5002,33.4470758,-90.6454507,2014-06-03,
266,ELEC,JOHNSON COUNTY,11811 S Sunset Dr,Olathe,KS,66061,888-758-4389,38.914733899999995,-94.7995987,2014-08-11,J1772
267,ELEC,City of San Antonio - Houston Street Mid City Garage - 10th floor,240 E Houston St,San Antonio,TX,78205,888-469-5326,29.426049,-98.490216,2012-11-25,NEMA520 J1772
268,LNG,Clean Energy - Port Wentworth,400 O Leary Rd,Port Wentworth,GA,31407,866-809-4869,32.192609600000004,-81.1909431,2014-04-04,
269,HY,HydrogenFuel Station,335 Richland Street,Columbia,SC,29201,803-354-5720,34.006419,-81.051715,2012-10-30,
270,CNG,New York State Department of Transportation,125 Parrish St,Canandaigua,NY,14424,,42.87721699999999,-77.281959,2014-04-04,
271,E85,Breaker's #127,4801 E Palmetto St,Florence,SC,29506,843-667-0330,34.196796,-79.65469499999999,2014-06-03,
272,E85,Speedway #9593,2900 Richmond Rd,Lexington,KY,40509,859-266-4218,38.006296999999996,-84.452435,2014-03-06,
273,ELEC,Green Energy Outlet,575 Cooke St,Honolulu,HI,96813,888-758-4389,21.299654,-157.857132,2014-05-02,
274,LPG,Shell,620 W Charter Way,Stockton,CA,95206,209-466-1901,37.9367676,-121.2956061,2014-05-02,
275,LPG,U-Haul,1760 Park Ave,Lynchburg,VA,24501,434-528-3115,37.405828,-79.155661,2014-07-03,
276,LPG,U-Haul,4375 Fulton Industrial Blvd SW,Atlanta,GA,30336,404-696-8817,33.766011999999996,-84.53062790000001,2013-09-30,
277,E85,FS Fast Stop,615 E Lincolnway,Morrison,IL,61270,815-772-7743,41.8073718,-89.957098,2013-10-31,
278,ELEC,Clayton Lane Owner's Association,151 Detroit Street,Denver,CO,80204,888-998-2546,39.718799,-104.95679399999999,2014-08-11,J1772
279,E85,Yocum Holiday #3838,2500 Orleans St,Stillwater,MN,55082,651-439-0345,45.0428452,-92.7981453,2014-03-06,
280,ELEC,Texas Nissan of Grapevine,1401 W State Highway 114,Grapevine,TX,76051,817-601-3600,32.927706699999995,-97.094121,2014-06-03,J1772
281,LPG,AmeriGas,5981 Route 152,Wayne,WV,25570,304-525-4170  866-209-5581,38.221475,-82.442375,2014-07-02,
282,ELEC,City of Palm Springs - Camelot Theatre,2300 E Baristo Rd,Palm Springs,CA,92262,760-323-8214,33.819959999999995,-116.52124509999999,2013-12-31,J1772
283,ELEC,Sheridan Nissan,114 S Dupont Hwy,New Castle,DE,19720,302-326-6100,39.6637925,-75.60526540000001,2014-04-21,J1772
284,ELEC,The Reeds at Shelter Haven,9601 3rd Ave,Stone Harbor,NJ,8247,609-368-0100,39.054155,-74.761398,2014-08-05,J1772
285,E85,Hull Co-op Association,1207 Highway 18,Hull,IA,51239,712-439-2406  712-439-1140,43.18577379999999,-96.1302986,2014-04-04,
286,E85,Menlo Park Veterans Affairs Medical Center,795 Willow Rd,Menlo Park,CA,94025,,37.466879999999996,-122.163,2014-08-05,
287,ELEC,Autocenters Nissan,1825 E Edwardsville Rd,Wood River,IL,62095,618-251-3000,38.8586473,-90.06689320000001,2014-04-21,J1772
288,LPG,INDOT - Beanblossom Maintenance Unit,6751 N State Rd 135,Freetown,IN,47235,,38.97301289999999,-86.1343988,2013-08-31,
289,ELEC,Marshall Auto Body - Tesla,22300 W Bluemound Rd,Waukesha,WI,53186,262-549-4300,43.036619,-88.192406,2013-07-31,J1772
290,CNG,City of Longmont CNG Station,1100 S Sherman St,Longmont,CO,80501,720-941-2791,40.146413700000004,-105.1145973,2013-12-31,
291,LPG,Connelly RV Resort and Kamper's Lodge,3465 US Highway 301 N,Wilson,NC,27893,252-237-0905,35.746035,-77.873964,2014-07-02,
292,ELEC,NOVA CONSULTNTS,"21580 Novi Rd., Suite 300",Novi,MI,48375,888-758-4389,42.4468435,-83.4724663,2014-08-11,NEMA520 J1772
293,CNG,Ohio Department of Transportation - District 12,5500 Transportation Blvd,Garfield Heights,OH,44125,,41.414997,-81.614726,2014-03-06,
294,E85,Anew,2431 84th Ave,Zeeland,MI,49464,800-748-0595,42.8137389,-85.989809,2014-05-02,
295,ELEC,Nelson Nissan,800 W Queens St,Broken Arrow,OK,74012,918-258-6581,36.071228000000005,-95.80045799999999,2014-04-21,J1772
296,ELEC,TUCSON RENTAL,9855 E Speedway Blvd,Tucson,AZ,85748,888-758-4389,32.2361565,-110.78179170000001,2014-08-11,NEMA520 J1772
297,LPG,U-Haul,1768 N Glenstone Ave,Springfield,MO,65803,417-866-4893,37.2299669,-93.2612323,2014-06-03,
298,ELEC,DP21,152-164 Green Ln,Bedford Hills,NY,10507,888-758-4389,41.224737299999994,-73.71423659999999,2014-08-11,J1772
299,LPG,Suburban Propane,2230 Lansing Rd,Charlotte,MI,48813,517-543-1363,42.5922489,-84.7911848,2014-05-02,
300,ELEC,Brown's Fairfax Nissan,11000 Main St,Fairfax,VA,22030,703-591-8009,38.8530341,-77.3244478,2014-04-21,J1772
301,LPG,Froman Oil & Propane,17951 S Highway 66,Claremore,OK,74017,918-341-4434,36.353369,-95.58416690000001,2014-08-05,
302,LPG,Ted Johnson Propane,5140 N Elton St,Baldwin Park,CA,91706,626-337-1222,34.106238,-117.9505061,2014-05-02,
303,CNG,SunLine Transit Agency,32505 Harry Oliver Tr,Thousand Palms,CA,92276,760-343-3456,33.8153399,-116.39428329999998,2014-06-03,
304,ELEC,NECA-IBEW Electrical Training Center,16021 NE Airport Way,Portland,OR,97230,888-998-2546,45.557884,-122.497748,2014-08-11,J1772
305,CNG,Alternative Vehicle Service Group - Tewksbury,20 Main St,Tewksbury,MA,1876,617-242-8755,42.628424,-71.2734198,2014-05-02,
306,E85,Speedway #5543,8185 Commerce Rd,Commerce,MI,48382,248-366-9663,42.59250170000001,-83.4455115,2014-03-06,
307,E85,Signal Food,1690 W State Highway J,Ozark,MO,65721,417-581-9902,37.070133899999995,-93.2204668,2014-06-03,
308,LPG,Thompson Gas,1225 W D St,North Wilkesboro,NC,28659,336-838-8332,36.1592725,-81.15363470000001,2014-07-02,
309,ELEC,Firelite Lodge,7035 N Lake Blvd,Tahoe Vista,CA,96148,530-546-7222,39.2396769,-120.0477726,2013-06-25,J1772
310,ELEC,InterCity Transit,526 Pattison SE,Olympia,WA,98506,360-786-8585,47.044295700000006,-122.85764409999999,2014-06-03,NEMA520
311,ELEC,Walmart #2321 - Kailua-Kona HI,75-1015 Henry St,Kailua-Kona,HI,96740,888-998-2546,19.645467,-155.99028700000002,2014-08-11,J1772
312,E85,Pioneer Travel Plaza,3230 Pioneer Rd,Richfield,WI,53076,262-628-3344,43.282288,-88.19695899999999,2013-10-31,
313,ELEC,UW,1390 University Ave,Madison,WI,53706,888-758-4389,43.074136700000004,-89.40863540000001,2014-08-11,J1772
314,E85,Casey's General Store,620 2nd Ave S,Saint James,MN,56081,507-375-3411,43.981211200000004,-94.6273873,2014-03-06,
315,HY,City of Las Vegas,2950 Ronemus Dr,Las Vegas,NV,89128,702-229-6971,36.214646,-115.257149,2008-05-29,
316,E85,Stripes Store #2221,6814 Weber,Corpus Christi,TX,78413,361-855-8865,27.693267,-97.415679,2013-11-30,
317,ELEC,"""North 40"" Parking Lot",1647 L Ave,Plano,TX,75074,888-998-2546,33.021846999999994,-96.697517,2014-08-11,J1772
318,E85,Spinx #233,215 S Pine St,Spartanburg,SC,29302,864-573-6442,34.9501739,-81.91730600000001,2014-06-03,
319,CNG,City of Los Angeles - Port of Los Angeles - Administration,325 S Palos Verdes St,Los Angeles,CA,90731,,33.7411549,-118.28136709999998,2014-04-04,
320,E85,Formula Marathon,310 W Northwest Hwy,Mount Prospect,IL,60056,847-577-5760,42.066074,-87.94189399999999,2013-10-31,
321,ELEC,Data Cave,2425 Technology Blvd,Columbus,IN,47201,,39.183267,-85.8947,2013-12-25,J1772
322,BD,Pacific Biodiesel Inc - Burt's Service,1342 N School St,Honolulu,HI,96817,808-841-6711,21.3318109,-157.866066,2014-05-02,
323,ELEC,Gay Brewer Jr Golf Course,469 Parkway Dr,Lexington,KY,40504,859-288-2900,38.035604299999996,-84.52542270000002,2014-03-06,J1772
324,E85,Chevron,1601 Research Park Dr,Davis,CA,95618,530-750-0799,38.540340500000006,-121.7319544,2014-03-06,
325,E85,Propel Fuels - 76,12042 E Firestone Blvd,Norwalk,CA,90650,562-863-7786,33.90934,-118.076168,2013-11-30,
326,ELEC,AutoNation Nissan of Marietta,925 Cobb Pkwy SE,Marietta,GA,30060,770-422-4546,33.9298795,-84.5086792,2014-05-02,J1772 CHADEMO
327,E85,Murray State University,615 Gilbert Graves Dr,Murray,KY,42071,,36.616933,-88.3193278,2014-07-02,
328,LPG,Blossman Gas Inc,560 S 16th Ave,Laurel,MS,39440,601-428-5441,31.6848419,-89.1468252,2014-06-03,
329,ELEC,DOMICILIO,431 El Camino Real,Santa Clara,CA,95050,888-758-4389,37.3472057,-121.93212690000001,2014-08-11,NEMA520 J1772
330,E85,Brookville Maintenance Facility,8710 Brookville Rd,Silver Spring,MD,20910,,38.99815,-77.0573,2012-10-31,
331,ELEC,JBG - Choke Cherry - Rockville MD,1 Choke Cherry Road,Rockville,MD,20850,888-998-2546,39.112689,-77.185113,2014-08-11,J1772
332,E85,Break Time Convenience Store #3026,2101 W Ash St,Columbia,MO,65203,573-445-7425,38.957916,-92.372101,2014-07-03,
333,ELEC,Roland D Kelly Nissan,420 Cabot St,Beverly,MA,1915,978-922-1405,42.560051,-70.884297,2014-04-21,J1772
334,ELEC,OUC,5151 Raleigh St,Orlando,FL,32811,888-758-4389,28.528024699999996,-81.4475861,2014-08-11,NEMA520 J1772
335,ELEC,Echo Aventura,3250 NE 188 Street,Aventura,FL,33180,800-663-5633,25.949131,-80.1354575,2014-08-11,J1772
336,LPG,Potts Gas Co,12728 State Highway 19,Canton,TX,75103,903-567-6338,32.6059006,-95.85029229999999,2013-02-28,
337,ELEC,CBRE - Britannia Point Grand,280 E Grand Ave,South San Francisco,CA,94080,888-998-2546,37.652159999999995,-122.39511999999999,2014-08-11,CHADEMO J1772
338,E85,Holiday Stationstore #73,8401 Lyndale Ave S,Bloomington,MN,55420,952-881-6083,44.851101,-93.28784,2014-04-04,
339,E85,Bonneville Power Administration,5411 NE Highway 99,Vancouver,WA,98663,,45.662257000000004,-122.66448899999999,2014-08-05,
340,E85,Robert J Dole Medical Center,5500 E Kellogg,Wichita,KS,67218,,37.681351899999996,-97.274539,2014-08-05,
341,E85,Kum & Go #302,2905 4th Ave S,Clear Lake,IA,50428,641-357-6041,43.1336852,-93.3508873,2014-03-06,
342,LPG,Waltlou Propane Gas,455 Cambridge St,Fredericksburg,VA,22405,540-373-0850,38.343364,-77.4596989,2013-12-31,
343,BD,Propel Fuels - Shell,3204 Richards Rd,Bellevue,WA,98005,425-746-8945,47.581392,-122.16767140000002,2014-06-03,
344,ELEC,2800 San Jacinto,2800 San Jacinto,Houston,TX,77004,888-998-2546,29.742915999999997,-95.373811,2014-08-11,J1772
345,ELEC,Las Vegas Convention Center,3150 Paradise Rd,Las Vegas,NV,89109,702-892-0711,36.132778,-115.15527800000001,2014-08-05,J1772
346,ELEC,Fox Studio Operations,10201 Pico Blvd,Los Angeles,CA,90035,888-998-2546,34.049144,-118.41269399999999,2014-08-11,J1772
347,ELEC,City of Newport - Public Parking,925 SW Hurbert St,Newport,OR,97365,888-833-2148,44.632519,-124.055931,2014-05-02,J1772 CHADEMO
348,E85,Road Ranger #181,500 Toronto Rd,Springfield,IL,62711,815-516-0863,39.7136311,-89.64731119999998,2014-03-06,
349,ELEC,Colorado Mountain College - Leadville,901 S Highway 24,Leadville,CO,80461,719-486-2015,39.2401051,-106.30247759999999,2014-07-03,J1772
350,ELEC,CPSE-SATX,4821 Broadway St,San Antonio,TX,78209,888-758-4389,29.470615000000002,-98.464322,2014-08-11,J1772
351,ELEC,Westin Kierland Resort and Spa,6902 E. Greenway,Scottsdale,AZ,85254,888-998-2546,33.625432,-111.93287099999999,2014-08-11,J1772
352,LPG,U-Haul,55 E 3900 S,Salt Lake City,UT,84107,801-266-3733,40.687699,-111.889744,2013-09-30,
353,LPG,Fencl Oil & LP Co,2345 172nd Ave,Decorah,IA,52101,563-569-8205,43.277105999999996,-91.74005600000001,2014-04-04,
354,LPG,Western Propane Service,12600 Western Ave,Garden Grove,CA,92841,714-893-9329,33.779011100000005,-118.00119550000001,2014-05-02,
355,LPG,Servigas - Ikard & Newsom,8319 Highway 478,Vado,NM,88072,575-233-3752  888-829-6657,32.1157308,-106.6650808,2013-02-28,
356,ELEC,Ruby Falls,1720 South Scenic Hwy,Chattanooga,TN,37409,888-998-2546,35.018887,-85.33976700000001,2014-08-11,J1772
357,ELEC,Hall Nissan,3417 Western Branch Blvd,Chesapeake,VA,23321,757-673-8000,36.8650124,-76.41815159999999,2014-05-02,J1772
358,ELEC,Portland General Electric,7800 SW Mohawk St,Tualatin,OR,97062,503-892-7345,45.375865000000005,-122.75821,2013-07-31,NEMA515 J1772
359,ELEC,350GREEN,3320 Grove Ave,Berwyn,IL,60402,888-758-4389,41.831528000000006,-87.794338,2014-08-11,J1772
360,BD,Person County - North Carolina DOT,517 Leasburg Rd,Roxboro,NC,27574,,36.3917005,-78.9969895,2013-06-30,
361,ELEC,NRG eVgo - Whole Foods,3000 Telegraph Ave,Berkeley,CA,94705,877-455-3833,37.855671,-122.260645,2014-07-03,CHADEMO NEMA520 J1772
362,ELEC,CARCHARGING,350 E 30th St,New York,NY,10016,888-758-4389,40.741368,-73.975668,2014-08-11,NEMA520 J1772
363,ELEC,UC Davis - Lot 49 Visitor Parking,La Rue Rd and Garrod Dr,Davis,CA,95616,530-752-8277,38.5344111,-121.76000259999998,2013-10-31,J1772
364,ELEC,Virginia Commonwealth University (VCU) - N-Deck Parking Deck,615 N 10th St,Richmond,VA,23298,804-828-2421,37.543387,-77.42953,2012-12-31,J1772
365,ELEC,"Walgreens - Stone Mountain, GA #7608",5435 Five Forks Trickum Rd SW,Stone Mountain,GA,30087,800-663-5633,33.840326399999995,-84.1311413,2014-08-11,J1772
366,ELEC,Starbucks/Jimmy John's Parking Lot,102 22nd St,Galveston,TX,77550,888-998-2546,29.308233,-94.79273,2014-08-11,J1772
367,E85,Super Pantry #10,1212 N Bowman,Danville,IL,61832,217-431-0439,40.145156799999995,-87.61189940000001,2013-10-31,
368,ELEC,Springfield - Courts Parking,220 5th Street,Springfield,OR,97477,888-998-2546,44.047691,-123.02013500000001,2014-08-11,J1772
369,ELEC,EOFF Electric,2025 W 2nd Ave,Eugene,OR,97402,855-443-3873,44.057902,-123.12470400000001,2012-04-30,J1772
370,E85,Stripes Store #2406,11225 Quaker Ave,Lubbock,TX,79424,806-771-2404,33.4919545,-101.90496800000001,2013-11-30,
371,ELEC,"Carefirst, Owings Mills",10455 Mill Run Circle,Owings Mills,MD,21117,800-663-5633,39.4056805,-76.7960916,2014-08-11,J1772
372,ELEC,FLORIDA   TECH,150 W University Blvd,Melbourne,FL,32901,888-758-4389,28.062423300000003,-80.6218815,2014-08-11,NEMA520 J1772
373,E85,Propel Fuels - Shell,1515 S River Rd,West Sacramento,CA,95691,916-371-2570,38.569408,-121.521431,2014-07-02,
374,ELEC,Westin Ka'anapali Resort & Spa,2365 Kaanapali Pkwy,Lahaina,HI,96761,503-740-4032  650-845-2869,20.919806,-156.694844,2014-05-02,NEMA520 J1772
375,ELEC,Harry Green Chevrolet,Old Route 50 E,Clarksburg,WV,26301,304-624-6304,39.277617,-80.29960799999999,2014-04-04,J1772
376,E85,Holiday Stationstore #405,13028 Main St,Rogers,MN,55374,763-428-2670,45.192971,-93.5519541,2014-04-04,
377,LPG,AmeriGas,6801 Mitchell Pkwy,Arlington,TX,76002,817-467-1727,32.630437,-97.082296,2013-02-28,
378,ELEC,WELCOME TO PCC,1570 Colorado Blvd,Pasadena,CA,91106,888-758-4389,34.143932899999996,-118.11916799999999,2014-08-11,NEMA520 J1772
379,ELEC,City of Chandler Park Side,"11 West Buffalo, South East Corner of San Marcos Place & Buffalo Street",Chandler,AZ,85225,888-998-2546,33.304455,-111.84193300000001,2014-08-11,J1772
380,ELEC,TARGET CORP,125 Shoreline Blvd,San Rafael,CA,94901,888-758-4389,37.955212,-122.49126389999999,2014-08-11,J1772
381,ELEC,Broccolo Tree and Lawncare Garden Center,2755 Penfield Rd,Fairport,NY,14450,585-424-4476,43.1268249,-77.386031,2014-08-05,J1772
382,ELEC,Camelback Ford,1330 E. Camelback Road,Phoenix,AZ,85012,888-998-2546,33.510529999999996,-112.04785700000001,2014-08-11,J1772
383,E85,Bucky's Express #84,3052 S 84th St,Omaha,NE,68124,402-255-0006,41.2292438,-96.04370240000002,2014-06-03,
384,ELEC,COLGATE,Lally Ln,Hamilton,NY,13346,888-758-4389,42.817555,-75.5392648,2014-08-11,J1772
385,LPG,West Texas Gas,429 N Highway 87,Tulia,TX,79088,806-995-1485,34.5417734,-101.7764443,2013-02-28,
386,ELEC,Park Place Regional Library,8145 Park Place Blvd,Houston,TX,77017,888-998-2546,29.688140999999998,-95.276637,2014-08-11,J1772
387,LPG,INDOT - Grantsburg Maintenance Unit,2696 Old State Rd 37,English,IN,47118,,38.291897,-86.46866059999999,2013-08-31,
388,E85,Barksdale Air Force Base,1049 Davis Ave E,Barksdale AFB,LA,71110,,32.4991119,-93.67473079999999,2014-08-05,
389,ELEC,Riverton Mitsubishi,80 W Motor Park Ave,Sandy,UT,84070,801-208-2700,40.554688,-111.89426499999999,2013-09-25,J1772
390,ELEC,FNG FOX LOT,10201 West Pico Blvd.,Los Angeles,CA,90067,888-758-4389,34.050756,-118.4123267,2014-08-11,J1772
391,CNG,Trillium CNG - United Parcel Service - West Sacramento,1320 Shore St,West Sacramento,CA,95691,,38.5732516,-121.54623810000001,2014-05-02,
392,ELEC,East Hartford Public School - Department of Facilities,734 Tolland St,East Hartford,CT,6108,860-622-5952,41.78392,-72.6047,2014-04-21,J1772
393,ELEC,City of Bowling Green - Parking Lot 2,125 S Prospect St,Bowling Green,OH,43402,419-354-6246,41.373988399999995,-83.648724,2013-06-25,J1772
394,ELEC,Houston Central Library,500 McKinney,Houston,TX,77002,888-998-2546,29.759034999999997,-95.37,2014-08-11,J1772
395,ELEC,WINDFREE ENERGY,6121 Washington St,Gurnee,IL,60031,888-758-4389,42.362999,-87.9541779,2014-08-11,NEMA520 J1772
396,HY,Burbank,151 W Verdugo Ave,Burbank,CA,91502,,34.174434999999995,-118.310501,2012-01-03,
397,ELEC,WALNUT CREEK,1390 N Broadway,Walnut Creek,CA,94596,888-758-4389,37.8991165,-122.05917360000001,2014-08-11,NEMA520 J1772
398,CNG,SoCalGas - Riverside Base,3077 Cottage St,Riverside,CA,92507,213-244-5681,33.97151160000001,-117.371788,2014-05-02,
399,CNG,BeeGreen CNG Filling Station,3099 Duss Ave,Ambridge,PA,15003,724-595-7107,40.619291499999996,-80.2263933,2014-08-05,
400,ELEC,Orr Nissan of Corinth,5650 S Stemmons Fwy,Corinth,TX,76210,817-267-6411,33.157906,-97.06534,2014-04-21,J1772
401,E85,Jet-Pep Store #29,18055 Highway 31 N,Cullman,AL,35058,256-734-7385,34.22775,-86.8606928,2013-09-30,
402,E85,Sunoco - McBirney's Auto Service,720 N Broadway,Massapequa,NY,11758,516-798-9056,40.692811999999996,-73.464669,2014-04-04,
403,ELEC,JBG - Security Lane - Rockville MD,5515 Security Lane,Rockville,MD,20852,888-998-2546,39.041786,-77.111975,2014-08-11,J1772
404,ELEC,Coda of Silicon Valley,4175 Stevens Creek Blvd,Santa Clara,CA,95051,408-553-9800,37.32399,-121.97399999999999,2012-06-25,J1772
405,ELEC,Omak Inn,912 Koala Dr,Omak,WA,98841,800-204-4800,48.4212278,-119.50527190000001,2014-02-05,J1772
406,ELEC,Element Hotels - Ewing,1000 Sam Weinroth Rd,Ewing,NJ,8628,609-671-0050,40.27801132,-74.82046509,2013-11-30,NEMA520
407,ELEC,Koko Marina Shopping Center,7192 Kalanianaole Hwy,Honolulu,HI,96825,808-395-4737,21.278614,-157.70533400000002,2014-05-02,J1772
408,LPG,Hopkins Propane,1904 E US 9,Stigler,OK,74462,918-967-3311,35.251,-95.1146,2014-08-05,
409,BD,Central Washington Biodiesel,1000 N Prospect St,Ellensburg,WA,98926,509-899-3370,47.00154860000001,-120.56543470000001,2014-05-02,
410,ELEC,Howell Mill LLC (Riverfront Parkway),1301 Riverfront Parkway,Chattanooga,TN,37402,888-998-2546,35.041802000000004,-85.320298,2014-08-11,J1772
411,ELEC,Town Center Nissan,2310 Barrett Lakes Blvd N,Kennesaw,GA,30144,770-423-9691,34.009954,-84.57675,2014-05-02,J1772
412,LPG,Spalding Gas,415 W Solomon St,Griffin,GA,30223,770-228-8484,33.2488962,-84.2693589,2013-02-28,
413,ELEC,CARCHARGING,600 Grant St,Pittsburgh,PA,15219,888-758-4389,40.441505,-79.9951949,2014-08-11,J1772
414,ELEC,Google - Kirkland Building C,747 6th St S,Kirkland,WA,98033,,47.67043686,-122.19713590000002,2013-11-30,J1772
415,ELEC,FRED MEYER - #460 Salmon Creek,800 NE Tenney Rd,Vancouver,WA,98685,888-998-2546,45.720603000000004,-122.66313500000001,2014-08-11,CHADEMO J1772
416,ELEC,Delaware Welcome Center and Travel Plaza - Tesla,530 John F Kennedy Memorial Hwy,Newark,DE,19702,877-798-3752,39.662187599999996,-75.69113859999999,2014-04-21,TESLA
417,ELEC,NATIONAL GRID,3155 Niagara Falls Blvd,Amherst,NY,14228,888-758-4389,43.0394249,-78.8209183,2014-08-11,J1772
418,ELEC,Richfield Bloomington Honda,400 W 78th St,Richfield,MN,55423,612-866-8832,44.8628848,-93.28522070000001,2014-04-21,J1772
419,ELEC,Briggs Nissan of Lawrence,2300 W 29th Terrace,Lawrence,KS,66047,785-856-8889,38.93029179999999,-95.2621851,2014-04-21,J1772
420,ELEC,Middle Tennessee Electric Membership Corp - District Office,326 Saint Andrews Dr,Murfreesboro,TN,37128,,35.843255,-86.446727,2014-08-05,J1772
421,CNG,Fast Lane Travel Plaza,1501 N Airport Rd,Weatherford,OK,73096,580-772-6076,35.541473499999995,-98.6586788,2014-08-05,
422,CNG,Clean Energy - Regional Transportation Commission of Southern Nevada,300 W Bonanza Rd,Las Vegas,NV,89106,702-676-1500,36.180229,-115.14336899999999,2013-07-31,
423,ELEC,South Side Parking Garage (SSPG),Bizzell St/Lewis St,College Station,TX,77840,888-998-2546,30.613220000000002,-96.33386,2014-08-11,J1772
424,E85,Maxwell Air Force Base,30 N Selfridge St,Montgomery,AL,36112,,32.373971999999995,-86.3516683,2014-08-05,
425,LPG,Menards,13441 S Route 59,Plainfield,IL,60585,815-577-3386,41.637888399999994,-88.20291800000001,2013-06-30,
426,ELEC,350GREEN,10840 Katella Ave,Anaheim,CA,92804,888-758-4389,33.8029366,-117.943634,2014-08-11,J1772
427,LPG,Blackhawk Propane,1000 Doner Dr,South Beloit,IL,61080,815-389-3522,42.4859078,-89.04538609999999,2013-02-28,
428,LPG,Blossman Gas Inc,7794 Highway 45 N,Meridian,MS,39305,601-679-7077,32.449326899999996,-88.627151,2014-06-03,
429,E85,Georgia Power,960 Key St,Macon,GA,31204,,32.8175124,-83.6752994,2013-09-30,
430,E85,Meijer Gas #196,8994 Shaver Rd,Portage,MI,49024,269-321-4329,42.186074600000005,-85.60318249999999,2014-05-02,
431,LPG,Bi-State Propane,5871 Reno Hwy,Fallon,NV,89406,775-463-2363,39.48681,-118.874,2013-02-28,
432,LPG,U-Haul,5456 Main St,Lancaster,PA,17520,717-569-4538,40.0924123,-76.3491773,2014-08-05,
433,E85,Speedway #2325,635 Tecumseh St,Dundee,MI,48131,734-529-5200,41.958804,-83.6705302,2014-03-06,
434,ELEC,Ontario International Airport,Terminal Way,Ontario,CA,91761,909-937-1240,34.0616,-117.5935,2013-09-25,J1772
435,ELEC,350GREEN,2200 Hilltop Mall Rd,Richmond,CA,94806,888-758-4389,37.980725,-122.328355,2014-08-11,J1772
436,ELEC,University of California Santa Cruz - West Parking,1156 High St,Santa Cruz,CA,95064,831-502-7341,36.9776244,-122.0543182,2013-12-31,NEMA520 J1772
437,ELEC,Sultan Visitor Information Center,320 Main St,Sultan,WA,98294,888-833-2148,47.862157,-121.816597,2013-05-31,J1772 CHADEMO
438,LPG,Moeder Oil,1002 N Main St,Pratt,KS,67124,620-672-3811,37.655429999999996,-98.7391,2012-05-31,
439,ELEC,Colorado Mountain College - Rifle,3695 Airport Rd,Rifle,CO,81650,970-625-0649,39.5202102,-107.73456750000001,2014-07-03,J1772
440,ELEC,EV CHARGER,3475 Las Vegas Strip,Las Vegas,NV,89109,888-758-4389,36.119309799999996,-115.17177029999999,2014-08-11,J1772
441,E85,Murphy USA #6843,3420 Singing Hills Blvd,Sioux City,IA,51106,712-258-2112,42.4361795,-96.3638007,2014-08-05,
442,ELEC,Riverhead Auto Mall,1800 Old Country Rd,Riverhead,NY,11901,631-369-0600,40.924952000000005,-72.70569990000001,2014-04-21,J1772
443,ELEC,CCC,2870 Gateway Oaks Dr,Sacramento,CA,95833,888-758-4389,38.62197020000001,-121.52110449999999,2014-08-11,NEMA520 J1772
444,LPG,U-Haul,11298 S Priest Dr,Tempe,AZ,85283,480-940-0274,33.341646999999995,-111.96341899999999,2013-09-30,
445,E85,Sacramento State Garage,1416 10th St,Sacramento,CA,95814,,38.5752714,-121.4959965,2014-05-02,
446,ELEC,CITY OF SOLVANG,1556 Mission Dr,Solvang,CA,93463,888-758-4389,34.5957527,-120.14345549999999,2014-08-11,J1772
447,ELEC,Puyallup Nissan,101 Valley Ave NW,Puyallup,WA,98371,253-848-4507,47.2071047,-122.2958044,2014-04-21,J1772
448,LPG,Taylor Butane Co,3302 W 2nd St,Taylor,TX,76574,512-352-5248,30.5634815,-97.4488915,2013-02-28,
449,CNG,Clean Energy - PS Energy - Lithonia,2490 Lithonia Industrial Blvd,Lithonia,GA,30058,866-809-4869,33.712794,-84.125795,2014-04-04,
450,LPG,Suburban Propane,110 Highway 99 N,Eugene,OR,97402,541-344-2283,44.0620974,-123.13546170000001,2014-03-06,
451,ELEC,"Walgreens - San Diego, CA #6094",3005 Midway Dr,San Diego,CA,92110,800-663-5633,32.749527,-117.20694499999999,2014-08-11,J1772
452,ELEC,Kelly Nissan of Lynnfield,275 Broadway,Lynnfield,MA,1940,781-598-1234,42.51013629999999,-71.0092109,2014-04-21,J1772
453,LPG,Frio Canyon Propane,633 US 83,Leakey,TX,78873,830-232-5282,29.719479999999997,-99.7636,2013-02-28,
454,E85,Fastrac Markets,260 S 2nd St,Fulton,NY,13069,315-598-8648,43.319072,-76.413028,2014-04-04,
455,ELEC,"IdleAir at Carneys Point, NJ - Flying J #688 - I-295 Exit 2C",326 Slapes Corner,Carney Point,NJ,8069,888-998-2546,39.683467,-75.484314,2014-08-11,CHADEMO
456,CNG,City of New York - Flushing Meadows Corona Park,11101 Corona Ave,Flushing,NY,11368,,40.740789,-73.849372,2014-04-04,
457,ELEC,Commons Municipal Parking Garage,60 Beattie Pl,Greenville,SC,29601,843-743-6736,34.8530379,-82.3953179,2012-07-31,J1772
458,ELEC,The Muller Company - Los Angeles - 5110,5110 W. Goldleaf Circle,Los Angeles,CA,90056,888-998-2546,33.98863,-118.367455,2014-08-11,J1772
459,LPG,MFA Oil & Propane Co,20208 N Keota Landing Rd,Keota,OK,74941,918-966-3340,35.2557,-94.9219,2014-08-05,
460,BD,Citgo Easy Stop Food - Mid-State Energy,4235 Clark Rd,Sarasota,FL,34233,941-922-5696,27.2693278,-82.4835626,2014-08-05,
461,E85,Kum & Go #405,2710 Moberly Ln,Bentonville,AR,72712,479-464-0849,36.34451170000001,-94.1838145,2014-03-06,
462,ELEC,TOWSON,Cross Campus Dr,Towson,MD,21252,888-758-4389,39.390910999999996,-76.60764250000001,2014-08-11,NEMA520 J1772
463,E85,Nebraska Transportation Services Bureau - Dispatch Building,M St and Centennial Mall S,Lincoln,NE,68508,,40.811394,-96.699689,2014-06-03,
464,ELEC,The Muller Company - Los Angeles - 5130,5130 W. Goldleaf Circle,Los Angeles,CA,90056,888-998-2546,33.988971,-118.36366399999999,2014-08-11,J1772
465,E85,Gallahan Irish Market,903 W Main St,Peru,IN,46970,765-473-4657,40.7447376,-86.09350049999998,2014-07-02,
466,ELEC,IRVINE CO OFC,545 San Nicolas Dr,Newport Beach,CA,92660,888-758-4389,33.615286600000005,-117.8714915,2014-08-11,J1772
467,ELEC,Town of  Dyer - Town Hall - Public,1 Town Sq,Dyer,IN,46311,219-865-6108,41.492057,-87.522819,2013-06-30,NEMA520 J1772
468,ELEC,"Walgreens - Aurora, CO #6513",15301 E Iliff Ave,Aurora,CO,80013,800-663-5633,39.675265,-104.80917590000001,2014-08-11,J1772
469,CNG,Republic Services,832 Langsdale Ave,Indianapolis,IN,46202,,39.796296999999996,-86.173618,2013-11-30,
470,ELEC,CARCHARGING,50 W San Fernando St,San Jose,CA,95113,888-758-4389,37.333901899999994,-121.88927439999999,2014-08-11,J1772
471,BD,City of Phoenix - 91st Avenue WWTP,5615 S 91st Ave,Tolleson,AZ,85353,,33.395089500000005,-112.25418810000001,2013-10-31,
472,ELEC,Salem Riverfront Park,200 Water St NE,Salem,OR,97301,888-998-2546,44.9424308,-123.04323049999999,2014-08-11,J1772
473,E85,McClure Oil #50,2304 E Edison Rd,South Bend,IN,46615,765-674-9771,41.6944988,-86.2155743,2014-07-03,
474,LPG,Fair Propane,863 Highway 12,Kosciusko,MS,39090,662-289-6163,33.068336800000004,-89.5625151,2014-06-03,
475,ELEC,Missoula Nissan,2715 Brooks St,Missoula,MT,59801,406-549-5178,46.84559,-114.02331299999999,2014-05-02,J1772
476,ELEC,Downey Nissan,7550 Firestone Blvd,Downey,CA,90241,562-334-1090,33.946203999999994,-118.14571799999999,2014-04-21,J1772
477,LPG,U-Haul,1641 Civic Center Dr NW,Rochester,MN,55901,507-288-0633,44.030825,-92.48439,2014-03-06,
478,ELEC,TARGET CORP,4601 2nd St,Davis,CA,95618,888-758-4389,38.5539587,-121.69970149999999,2014-08-11,J1772
479,E85,Family Express - Roselawn,11880 W State Route 10,Roselawn,IN,46310,219-345-4100,41.144816999999996,-87.273803,2014-07-02,
480,ELEC,Jackie Cooper Nissan,9898 S Memorial Dr,Tulsa,OK,74133,918-249-9393,36.021440999999996,-95.88767790000001,2014-04-21,J1772
481,ELEC,Alexander Nissan - Cool Springs,212 Comtide Ct,Franklin,TN,37067,615-790-2500,35.9569403,-86.8090886,2014-05-02,J1772
482,ELEC,Lewisville Autoplex,1515 S Stemmons Fwy,Lewisville,TX,75067,888-998-2546,33.024162,-96.989113,2014-08-11,J1772
483,ELEC,Apple Nissan,1510 Whiteford Rd,York,PA,17402,717-755-9504,39.981561,-76.69913299999999,2014-04-21,J1772
484,E85,United Co-op,306 E Main St,Reedsburg,WI,53959,608-524-6115,43.532487200000006,-90.00631240000001,2014-06-03,
485,LNG,Clean Energy - Chicago Stevenson Expressway,4220 W 36th St,Chicago,IL,60632,866-809-4869,41.827312899999995,-87.72897590000001,2014-04-04,
486,E85,Holiday Stationstore #304,5000 N Cliff Rd,Sioux Falls,SD,57104,605-335-8456,43.6022101,-96.7112911,2013-11-30,
487,LPG,Mid-Georgia Propane,4262 Interstate Dr,Macon,GA,31210,478-474-3414,32.830855699999994,-83.72895890000001,2013-03-31,
488,ELEC,CITY OF GR PARK,50 Ottawa Ave NW,Grand Rapids,MI,49503,888-758-4389,42.9638062,-85.6715012,2014-08-11,NEMA520 J1772
489,E85,Speedway #1018,5259 W 10th St,Indianapolis,IN,46224,317-243-2023,39.779629,-86.249815,2014-08-05,
490,LPG,West Texas Gas,901 N 2nd St,Floydada,TX,79235,806-983-3366,33.9920451,-101.34118199999999,2013-02-28,
491,ELEC,GLENBOROUGH,550 E Hospitality Ln,San Bernardino,CA,92408,888-758-4389,34.06694,-117.273619,2014-08-11,J1772
492,E85,Rebel Oil Co #91,3540 E Lake Mead Dr,Las Vegas,NV,89030,702-399-8244,36.19616,-115.09946799999999,2013-09-30,
493,E85,Meijer Gas #316,2217 W Columbia Ave,Battle Creek,MI,49015,269-968-3371,42.2973229,-85.23923640000001,2014-05-02,
494,ELEC,Gladstone Nissan,19505 SE McLoughlin Blvd,Gladstone,OR,97027,503-655-6519,45.3799237,-122.60424679999998,2014-04-21,J1772
495,E85,Rana Oil Co,2401 Sunrise Blvd,Rancho Cordova,CA,95670,916-635-3372,38.61496079999999,-121.2687875,2013-08-31,
496,E85,Popke's Car Care,800 1st Ave W,Rock Rapids,IA,51246,712-472-3969,43.4318612,-96.1755228,2014-04-04,
497,ELEC,Causeway Nissan,435 Route 72 W,Manahawkin,NJ,8050,609-978-6700,39.700208,-74.272339,2014-04-21,J1772
498,BD,Idaho National Laboratory,2525 N Fremont Ave,Idaho Falls,ID,83415,,43.517660799999994,-112.0491841,2014-08-05,
499,ELEC,Rafting in the Smokies Hartford,3595 Hartford Rd,Hartford,TN,37753,888-998-2546,35.816939,-83.145014,2014-08-11,J1772
500,ELEC,CONSUMERSENERGY,530 Willow St,Lansing,MI,48906,888-758-4389,42.748809,-84.55925490000001,2014-08-11,NEMA520 J1772
501,ELEC,City of Bellevue - Bellevue Service Center,2901 115th Ave NE,Bellevue,WA,98004,,47.63811493,-122.1882,2014-06-03,J1772
502,E85,South Central Grain & Energy,100 Highway Ave,Hector,MN,55342,320-848-2286,44.738653,-94.714522,2014-04-04,
503,ELEC,SIERRA COLLEGE,250 Sierra College Drive,Grass Valley,CA,95945,888-758-4389,39.2357503,-121.04661709999999,2014-08-11,J1772
504,ELEC,KAUFMAN FIN GRP,18302 Highwoods Preserve Pkwy,Tampa,FL,33647,888-758-4389,28.136164,-82.374613,2014-08-11,J1772
505,HY,Richmond Field Station - UC Berkeley,1301 S. 46th St. ,Richmond,CA,94804,,37.915696000000004,-122.334695,2014-02-12,
506,ELEC,"Walgreens - Oregon City, OR #3801",1310 Molalla Ave,Oregon City,OR,97405,800-663-5633,45.336162,-122.591209,2014-08-11,J1772
507,ELEC,Bob Moore Nissan of Tulsa,8190 E Skelly Dr,Tulsa,OK,74129,918-628-0280,36.121359999999996,-95.8839,2014-05-02,J1772
508,ELEC,Northwoods Nissan,2039 N Susquehanna Trail,Hummels Wharf,PA,17831,570-884-1135,40.836286,-76.83465600000001,2014-04-04,J1772
509,ELEC,King County - King County Van Distribution Center,18655 NE Union Hill Rd,Redmond,WA,98052,,47.67584,-122.091467,2013-06-25,J1772
510,ELEC,Kwik Trip #316,10 Denver Ave SE,Hutchinson,MN,55350,320-587-6010,44.871014,-94.37621999999999,2014-05-02,NEMA520
511,ELEC,RARITANVALLEYCC,Southwing Dr,Somerville,NJ,8876,888-758-4389,40.6100006,-74.68987270000001,2014-08-11,NEMA520 J1772
512,E85,Weld County Government,1113 H St,Greeley,CO,80634,,40.446968,-104.70404,2013-12-31,
513,ELEC,Cisco BXB 500,500 Beaver Brook,Boxborough,MA,1719,800-663-5633,42.4995987,-71.53869870000001,2014-08-11,J1772
514,ELEC,"Walgreens - Chula Vista, CA #2623",1111 Third Ave,Chula Vista,CA,91911,800-663-5633,32.613528,-117.068816,2014-08-11,J1772
515,CNG,Western Petroleum,1521 S 1500 E,Naples,UT,84078,435-789-1832,40.4337484,-109.4993989,2013-09-30,
516,E85,Propel Fuels - Shell,40452 Murrieta Hot Springs Rd,Murrieta,CA,92653,800-871-0773,33.5557069,-117.1780426,2013-11-30,
517,ELEC,St Pete Beach City Hall,155 Cory Ave,St. Pete Beach,FL,33706,727-367-2735,27.744,-82.7475,2014-08-05,J1772
518,E85,Kroger Fuel Center #435,6388 Branch Hill-Guinea Pike,Loveland,OH,45140,513-697-4828,39.2290409,-84.2559885,2014-03-06,
519,ELEC,InfoStructure Inc,314 N 22nd Ave,Humboldt,TN,38343,888-998-2546,35.8222071,-88.90755340000001,2014-08-05,J1772
520,LPG,Active Enterprises Inc,1318 N Pacific Ave,Long Beach,WA,98631,360-642-2102,46.360704,-124.053964,2014-06-03,
521,ELEC,Cafe Yumm! - On Broadway,730 E Broadway,Eugene,OR,97401,541-344-9866,44.049726,-123.08143419999999,2014-05-02,NEMA520 J1772
522,CNG,Hearst Castle,750 Hearst Castle Rd,San Simeon,CA,93452,,35.650998200000004,-121.18568300000001,2014-05-02,
523,ELEC,MAUI OCEAN CLUB,100 Nohea Kai Dr,Lahaina,HI,96761,888-758-4389,20.9158039,-156.69508359999998,2014-08-11,J1772
524,ELEC,Westar Energy - Shawnee Service Center,23505 W 86th St,Shawnee,KS,66227,800-383-1183,38.971247999999996,-94.85998599999999,2013-09-25,J1772
525,CNG,CNG 4 America - Katy,24985 Katy Fwy,Katy,TX,77494,888-560-5556  281-395-0515,29.7845178,-95.8011412,2014-05-02,
526,ELEC,CARCHARGING,418 Quincy Ave,Quincy,MA,2169,888-758-4389,42.2392068,-70.983317,2014-08-11,NEMA520 J1772
527,ELEC,Southern Connecticut University,34 Wintergreen Ave,New Haven,CT,6515,203-392-7278,41.33332539999999,-72.9502064,2013-09-25,J1772
528,E85,Marathon - Washtenaw Oil,3555 Washtenaw Ave,Ann Arbor,MI,48104,734-677-6840,42.255733,-83.688447,2014-05-02,
529,ELEC,PALO ALTO CA,Bryant St,Palo Alto,CA,94301,888-758-4389,37.44651029999999,-122.1621399,2014-08-11,NEMA520 J1772
530,ELEC,ShopRite Plaza,2333 Nott St E,Niskayuna,NY,12309,518-243-4565,42.8165908,-73.8898536,2014-05-02,J1772
531,LPG,U-Haul,387 Swannanoa River Rd,Asheville,NC,28805,828-298-8551,35.579327,-82.51824,2014-07-03,
532,E85,Norman's Auto Service,77-40 Hewlett St,New Hyde Park,NY,11040,718-347-3400,40.752747,-73.70251,2014-04-04,
533,ELEC,CITYOFSANTAROSA,100 Santa Rosa Ave,Santa Rosa,CA,95404,888-758-4389,38.4378005,-122.71183400000001,2014-08-11,NEMA520 J1772
534,ELEC,Deacon Jones Nissan,1220 W Grantham St,Goldsboro,NC,27530,919-734-2411,35.399575,-78.01511500000001,2014-05-02,J1772
535,LPG,Miller Gas Co,1420 W Main St,Tremonton,UT,84337,435-257-5107,41.7111648,-112.19022779999999,2013-02-28,
536,CNG,SunLine Transit Agency,83255 Highway 111,Indio,CA,92201,760-343-3456,33.714358000000004,-116.211564,2014-06-03,
537,BD,Lee County - North Carolina DOT,1502 S 7th St,Sanford,NC,27330,,35.472466600000004,-79.1583179,2013-06-30,
538,ELEC,McGrath Nissan,945 E Chicago St,Elgin,IL,60120,847-888-2030,42.0337742,-88.2552647,2014-04-21,J1772
539,LPG,Mr C's Ace Hardware,1201 Precinct Line Rd,Hurst,TX,76053,817-282-3428,32.8322186,-97.18651209999999,2013-02-28,
540,ELEC,Walmart #3883 - Kapolei HI,91-600 Farrington Highway,Kapolei,HI,96707,888-998-2546,21.340984,-158.07556399999999,2014-08-11,J1772
541,ELEC,TAITEM,110 S Albany St,Ithaca,NY,14850,888-758-4389,42.438969,-76.502064,2014-08-11,J1772
542,ELEC,Utah Division of Air Quality - Private Access,195 N 1950 W,Salt Lake City,UT,84114,,40.773366100000004,-111.94727979999999,2012-05-31,J1772
543,ELEC,CARCHARGING,707 Wilshire Blvd,Los Angeles,CA,90017,888-758-4389,34.049261,-118.257024,2014-08-11,NEMA520 J1772
544,CNG,Orem City,955 N 900 W,Orem,UT,84057,,40.314777899999996,-111.71774599999999,2013-09-30,
545,E85,Cenex - Olivia,1208 W Lincoln Ave,Olivia,MN,56277,320-523-1241,44.776496200000004,-94.99424880000001,2014-03-06,
546,E85,Pettysville Junction,9190 Pettysville Rd,Pinckney,MI,48169,734-878-3050,42.4674947,-83.875715,2014-05-02,
547,LPG,Citgo,1100 S Spring St,Port Washington,WI,53074,262-284-4122,43.375607,-87.893192,2014-06-03,
548,LPG,U-Haul,5315 Summer Ave,Memphis,TN,38122,901-767-1663,35.156615,-89.883212,2014-08-05,
549,E85,Sac-n-Pac Shell,901 Highway 95,Bastrop,TX,78602,512-308-1983,30.109968,-97.306666,2013-07-31,
550,ELEC,Downtown Properties,"818 West Seventh Street, Suite 410",Los Angeles,CA,90017,888-998-2546,34.04889,-118.259518,2014-08-11,J1772
551,LPG,AmeriGas,107 Iris Ave,Jefferson,LA,70121,504-835-0765,29.957641100000004,-90.14055340000002,2014-04-04,
552,LPG,Frito Lay - Plymouth,45325 Polaris Ct,Plymouth,MI,48170,,42.38921999999999,-83.49038399999998,2014-04-04,
553,LPG,Mother Lode Propane,2892 S Highway 49,Angels Camp,CA,95222,209-736-0070  800-404-1075,38.039032,-120.51640230000001,2014-05-02,
554,E85,Kwik Trip #681,4400 O'Day Ave NE,St. Michael,MN,55376,763-497-2447,45.217558000000004,-93.598394,2014-05-02,
555,ELEC,ROMEL 400 SECR,4 W 4th Ave,San Mateo,CA,94402,888-758-4389,37.562221799999996,-122.32537990000002,2014-08-11,J1772
556,E85,Cenex - Garner Townmart,260 Highway 18 W,Garner,IA,50438,641-923-2694,43.105733,-93.59916899999999,2014-04-04,
557,ELEC,Nissan of Newport News,12925 Jefferson Ave,Newport News,VA,23608,757-369-6600,37.151672,-76.531313,2014-05-02,J1772
558,ELEC,City of Pleasanton - City Hall,200 Old Bernal,Pleasanton,CA,94566,888-758-4389  925-931-5440,37.65831375,-121.878891,2013-12-31,J1772
559,LNG,Blu LNG - Blu Fuel Stop,1617 Finley Blvd,Birmingham,AL,35204,801-977-7252,33.539302899999996,-86.82779300000001,2014-07-03,
560,ELEC,Capital One - Garage Ground Level,15075 Capital One Dr,Richmond,VA,23238,,37.62755585,-77.67361,2013-11-30,J1772
561,LPG,Western States Propane,1207 Water St,Elko,NV,89801,775-753-5950,40.8355588,-115.7516817,2013-02-28,
562,LPG,Bassemiers Fireplace Patio and Spas,4220 E Morgan Ave,Evansville,IN,47715,812-479-6338,37.9915571,-87.498868,2014-07-02,
563,E85,Novi Shell,42355 W 13 Mile Rd,Novi,MI,48377,248-859-4292,42.509848,-83.466229,2014-05-02,
564,LPG,M & W Butane,5849 Highway 145,Shannon,MS,38868,662-767-9377,34.125961,-88.7194,2014-06-03,
565,LPG,Ferrellgas,336 Ranch Rd,Mount Washington,KY,40047,502-955-8646,38.0682386,-85.5509598,2014-07-03,
566,ELEC,NATIONAL GRID,1043 State Route 9,Queensbury,NY,12804,888-758-4389,43.343524,-73.686323,2014-08-11,J1772
567,CNG,Natural Fuels LLC,591 E Monticello Pike,Huntsville,TN,37756,423-663-9300,36.411596,-84.524446,2014-08-05,
568,ELEC,Porter Nissan,300 E Cleveland Ave,Newark,DE,19711,302-368-6300,39.689046999999995,-75.740166,2014-04-21,J1772
569,ELEC,PARK SFO,195 N Access Rd San Francisco International Airport,South San Francisco,CA,94080,888-758-4389,37.6315158,-122.39025149999999,2014-08-11,J1772
570,LPG,Blossman Gas Inc,2086 Highway 49 S,Florence,MS,39073,601-939-7930,32.183839899999995,-90.135176,2014-06-03,
571,LPG,Heritage Propane,359 Pleasant Valley Rd,Murphy,NC,28906,828-837-8787  866-259-3171,35.108351299999995,-84.01893559999999,2014-07-03,
572,ELEC,Lionshead Parking Structure,395 S Frontage Rd W,Vail,CO,81657,970-479-2180,39.6442866,-106.38687759999998,2013-09-30,J1772
573,LPG,Scott Petroleum,22360 Highway 8 E,Grenada,MS,38901,662-226-2091,33.7795316,-89.77928259999999,2014-06-03,
574,ELEC,Barberino Nissan,505 N Colony St,Wallingford,CT,6492,203-265-1611,41.467401,-72.817451,2014-04-21,J1772
575,ELEC,Houston TranStar,6922 Katy Road,Houston,TX,77024,888-998-2546,29.782602,-95.44062,2014-08-11,J1772
576,LPG,U-Haul,5010 Buffalo Rd,Erie,PA,16510,814-899-3167,42.1528735,-79.98930899999999,2014-08-05,
577,ELEC,WOLF TRAP,1645 Trap Rd,Vienna,VA,22182,888-758-4389,38.933429700000005,-77.2649689,2014-08-11,NEMA520 J1772
578,CNG,Norwich Public Utilities,157 N Main St,Norwich,CT,6360,860-823-4119  860-823-4159,41.5275646,-72.0640586,2014-04-21,
579,ELEC,Crosslake Campground,35507 County Rd 66,Crosslake,MN,56442,651-290-5793,46.671501899999996,-94.110957,2014-03-06,NEMA1450
580,ELEC,World Car Nissan,12908 IH-35 N,San Antonio,TX,78233,210-599-5959,29.556508,-98.34469,2014-04-21,J1772
581,CNG,Anadarko Carthage CNG Facility,1617 Highway 79 S,Carthage,TX,75633,,32.1635076,-94.30947909999999,2013-11-30,
582,ELEC,BEVERLY HILLS,9510 Brighton Way,Beverly Hills,CA,90210,888-758-4389,34.0688965,-118.40322409999999,2014-08-11,NEMA520 J1772
583,ELEC,El Dorado Transit Park & Ride,4640 Post St,El Dorado Hills,CA,95762,530-642-5383,38.6476,-121.06700000000001,2013-12-31,J1772
584,LPG,U-Haul,173 Bath Rd,Brunswick,ME,4011,207-729-8779,43.9074122,-69.9187934,2014-04-04,
585,E85,Harvest Land Co-op Cenex,410 Front St,Morgan,MN,56266,507-249-3196,44.414478499999994,-94.9274873,2014-04-04,
586,ELEC,TOWN OF WINDSOR,9291 Old Redwood Hwy,Windsor,CA,95492,888-758-4389,38.5494201,-122.8140062,2014-08-11,NEMA520 J1772
587,ELEC,Samitaur Constructs,3585 Hayden Avenue,Culver City,CA,90232,888-998-2546,34.024221000000004,-118.38233400000001,2014-08-11,J1772
588,ELEC,KOHL'S,19307 Golden Valley Rd,Santa Clarita,CA,91321,888-758-4389,34.39217,-118.46881869999999,2014-08-11,NEMA520 J1772
589,CNG,Great River Energy,2314 W Mount Pleasant St,West Burlington,IA,52655,"319-209-0347, 515-249-9435",40.827376,-91.18523,2014-03-06,
590,ELEC,TORRE,79125 CA-111,La Quinta,CA,92253,888-758-4389,33.7070547,-116.28380159999999,2014-08-11,CHADEMO
591,CNG,Kwik Trip #204,4705 Rib Mountain Dr,Wausau,WI,54401,715-843-5090,44.914240899999996,-89.64837790000001,2014-04-04,
592,CNG,Bronx Zoo,2300 Southern Blvd,Bronx,NY,10460,,40.85076711,-73.88129351,2014-04-04,
593,ELEC,Blink Network (2nd Avenue),430 S. 2nd Avenue,Phoenix,AZ,85003,888-998-2546,33.443432,-112.07743700000002,2014-08-11,CHADEMO J1772
594,E85,Elkton One Stop Shop - Ignash Petroleum Clark Station,5083 Whalen St,Elkton,MI,48731,989-375-4163,43.8181869,-83.1832228,2014-05-02,
595,ELEC,Florida Power & Light - Palm Beach International Airport,3800 Southern Blvd,West Palm Beach,FL,33406,,26.6775722,-80.1002651,2012-06-30,J1772
596,E85,Edwards Air Force Base,114 S Wolfe Ave,Edwards AFB,CA,93523,,34.919864000000004,-117.89551999999999,2014-08-05,
597,E85,Kum & Go #571,900 E Mount Vernon Blvd,Mount Vernon,MO,65712,417-461-0762,37.0943123,-93.8089902,2014-03-06,
598,E85,Road Ranger,6070 Gardner St,South Beloit,IL,61080,815-264-4311,42.491081,-88.999361,2013-10-31,
599,ELEC,FVRC UNIT 1,910 N Gary Ave,Carol Stream,IL,60188,888-758-4389,41.9280054,-88.1218468,2014-08-11,J1772
600,E85,Carlson's Northside,1927 Maple Ave,Slayton,MN,56172,507-836-6123,43.99398970000001,-95.7533691,2014-03-06,
601,CNG,City of Milwaukee - Lincoln Avenue - Public Access,3921 W Lincoln Ave,Milwaukee,WI,53215,414-286-2286,43.001528,-87.964148,2013-10-31,
602,ELEC,Fry's Electronics,1800 Kalama River Ave,Fountain Valley,CA,92708,714-378-4400,33.7002432,-117.9401496,2012-12-31,
603,ELEC,McDonald's #18516 - W. A Street - Hayward CA,355 West A. Street,Hayward,CA,94541,888-998-2546,37.666474,-122.106325,2014-08-11,J1772
604,E85,Warrensburg Mobil,3624 SR 9,Lake George,NY,12845,518-623-9492,43.487564,-73.75785599999998,2014-04-04,
605,BD,Wilmette Park District - West Park Facility,3555 Lake Ave,Wilmette,IL,60091,,42.079476899999996,-87.7614992,2013-10-31,
606,LPG,Frito Lay - Southgate,12862 Reeck Rd,Southgate,MI,48195,,42.215584,-83.224752,2014-04-04,
607,BD,Redstone Arsenal,Patriot Dr,Huntsville,AL,35898,,34.666376,-86.629515,2014-08-05,
608,ELEC,350GREEN,9031 Rosecrans Ave,Bellflower,CA,90706,888-758-4389,33.9040539,-118.14189760000001,2014-08-11,J1772
609,ELEC,University of Phoenix - 4025 S Riverpoint Parkway South Garage 1st Level,4025 S Riverpoint Parkway,Phoenix,AZ,85040,888-998-2546,33.412475,-112.014045,2014-08-11,J1772
610,ELEC,TPU,2216 N 30th St,Tacoma,WA,98407,888-758-4389,47.274662,-122.46676640000001,2014-08-11,NEMA520 J1772
611,BD,Franklin County - North Carolina DOT,NC 39 Highway S,Bunn,NC,27508,,35.942469,-78.250178,2013-06-30,
612,LPG,Hicksgas,2526 N Water st,Decatur,IL,62526,217-428-4656,39.8699903,-88.9548543,2013-02-28,
613,ELEC,ROSENBLUM,226 Great Oaks Blvd,Albany,NY,12203,888-758-4389,42.6821987,-73.84819870000001,2014-08-11,J1772
614,ELEC,McCoy Mills Ford,700 W Commonwealth Ave,Fullerton,CA,92832,,33.87015,-117.93799999999999,2012-08-31,J1772
615,BD,American Homegrown Fuel Corp - First Coast Biofuels,1170 W US Highway 90,Lake City,FL,32055,386-754-2616,30.18535,-82.65260500000001,2014-08-05,
616,ELEC,"Walgreens - Layton, UT #2523",1171 W 2000 N Antelope Dr,Layton,UT,84041,800-663-5633,41.089168,-111.98698,2014-08-11,J1772
617,ELEC,King County - Fauntleroy Ferry Dock,4829 SW Barton St,Seattle,WA,98136,,47.523219700000006,-122.3939938,2013-06-25,J1772
618,ELEC,CONTRA COSTA,1450 Treat Blvd,Walnut Creek,CA,94597,888-758-4389,37.9261261,-122.0524759,2014-08-11,J1772
619,ELEC,Hansel Ford Lincoln,3705 Corby Ave,Santa Rosa,CA,95407,877-398-1876,38.4018624,-122.71844840000001,2014-03-06,J1772
620,ELEC,NYC FLEET,"Olmsted Center, Roosevelt Avenue Queens",NEW York,NY,11368,888-758-4389,40.751074700000004,-73.8500598,2014-08-11,J1772
621,ELEC,CERRITOS CC,11204-11210 Alondra Blvd,Norwalk,CA,90650,888-758-4389,33.887473299999996,-118.09512749999999,2014-08-11,J1772
622,LPG,Bud's Propane,E Cranston Ave & 6th St,Fowler,CO,81039,719-263-4412,38.13062,-104.022,2013-02-28,
623,LNG,United Parcel Service,1735 S Turner Ave,Ontario,CA,91761,909-827-9944,34.0355999,-117.58464280000001,2014-05-02,
624,CNG,Clean N' Green - Waste Management,1525 B St,Forest Grove,OR,97116,,45.513488,-123.11486599999999,2014-08-05,
625,ELEC,Alamo Drafthouse,20575 E Hampton Plaza,Ashburn,VA,20147,703-293-6828,39.051411,-77.45425,2013-12-31,J1772
626,LPG,Matheson TRIGAS,10110 Smith-Calhoun Rd,Plain City,OH,43064,614-873-4695,40.0918783,-83.24877169999998,2014-03-06,
627,ELEC,Comfort Inn near Plano Medical Center,5021 West Plano Parkway,Plano,TX,75093,888-998-2546,33.01727,-96.797848,2014-08-11,J1772
628,ELEC,Mid City Nissan,4444 W Irving Park Rd,Chicago,IL,60641,773-282-6200,41.953683000000005,-87.7396481,2014-04-21,J1772
629,LPG,Suburban Propane,278 W Beacon St,Philadelphia,MS,39350,601-656-2562,32.7715549,-89.1210532,2014-06-03,
630,CNG,Questar Fueling - Phoenix,1001 S 65th Ave,Phoenix,AZ,85043,,33.438867200000004,-112.1982303,2014-05-02,
631,LPG,Turtle Bayou RV Park,25128 Interstate 10 E,Wallisville,TX,77597,409-389-2468,29.8387673,-94.75276159999999,2013-02-28,
632,CNG,Pioneer Natural Resources,27000 Highway 12,Trinidad,CO,81082,,37.1273995,-104.6686575,2013-12-31,
633,ELEC,Salt Lake City - Street Parking,55 E 300 S,Salt Lake City,UT,84111,801-535-6630,40.762896399999995,-111.88940420000002,2014-05-02,J1772
634,ELEC,Saint Mary's Square Garage,433 Kearny St,San Francisco,CA,94104,415-956-8106,37.7920393,-122.4043372,2012-12-31,
635,ELEC,Five Star Nissan - Albany,1100 E Oglethorpe Blvd,Albany,GA,31705,229-436-8807,31.57122,-84.125568,2014-05-02,J1772
636,ELEC,WALTHAM WOODS,866-908 Winter St,Waltham,MA,2451,888-758-4389,42.405444,-71.2797082,2014-08-11,J1772
637,ELEC,City of Del Mar-Beach Safety Center,1690 Coast Blvd,Del Mar,CA,92014,888-998-2546,32.96254201,-117.26782537,2014-08-11,J1772
638,ELEC,CARCHARGING,119 Ed Schmidt Blvd,Hutto,TX,78634,888-758-4389,30.540845899999997,-97.5634003,2014-08-11,J1772
639,ELEC,City of Lafayette Library,775 W Baseline Rd,Lafayette,CO,80026,303-665-0469,40.0002509,-105.0991568,2014-02-05,J1772
640,ELEC,Aloha Island Mart - Waipo-Gentry,94-826 Ukee St,Waipahu,HI,96797,808-676-4088,21.412014000000003,-157.99881000000002,2014-05-02,CHADEMO
641,ELEC,AAA - Peoria,7422 W. Thunderbird Rd.,Peoria,AZ,85381,888-998-2546,33.611151,-112.218644,2014-08-11,J1772
642,ELEC,Premier Nissan,1120 W Capitol Expy,San Jose,CA,95136,408-978-1234,37.275144,-121.877656,2014-06-03,J1772 CHADEMO
643,LPG,Thomas' Automotive,8201 N 56th St,Lincoln,NE,68514,402-261-0531,40.893558,-96.644661,2014-06-03,
644,E85,Qik-n-EZ #61,1230 Toronto Rd,Springfield,IL,62712,217-585-1230,39.714127600000005,-89.6281198,2013-10-31,
645,ELEC,Florida Power & Light - Customer Service East,6001 Village Blvd,West Palm Beach,FL,33407,,26.764079,-80.101516,2012-06-30,J1772
646,ELEC,Ralph's #292 Santa Monica,1644 Cloverfield Ave,Santa Monica,CA,90404,888-998-2546,34.027125,-118.47323999999999,2014-08-11,J1772
647,LPG,U-Haul,3587 E Apple Ave,Muskegon,MI,49442,231-777-3921,43.2342648,-86.1551576,2014-05-02,
648,ELEC,Bob Bell Ford,7125 Ritchie Hwy,Glen Burnie,MD,21061,800-604-6303,39.179728000000004,-76.61398100000001,2013-12-31,J1772
649,CNG,Trillium CNG - San Diego Metropolitan Transit System,120 Imperial Ave,San Diego,CA,92101,,32.70598,-117.15299999999999,2014-08-05,
650,ELEC,Lee Nissan,4801 Ward Blvd,Wilson,NC,27893,252-237-4400,35.723778,-77.893467,2014-05-02,J1772
651,ELEC,Sheldon Town Center,8973 Grant Line Rd,Elk Grove,CA,95624,916-869-8017,38.431610299999996,-121.2998363,2013-03-31,J1772
652,ELEC,Coulter Nissan,13301 N Autoshow Ave,Surprise,AZ,85388,623-934-3444,33.6053643,-112.420275,2014-06-03,J1772
653,CNG,Piedmont Natural Gas - Nashville,83 Century Blvd,Nashville,TN,37214,800-752-7504,36.1441467,-86.679898,2014-08-05,
654,LNG,Clean Energy - West Branch,110 Tidewater Dr,West Branch,IA,52358,866-809-4869,41.662728,-91.3401854,2014-04-04,
655,CNG,New Jersey Department of Transportation - Cherry Hill Facility,Route 70 & Frontage Rd,Cherry Hill,NJ,8034,,39.9105,-74.986042,2014-06-03,
656,ELEC,Maita's Nissan of Sacramento,2820 Auburn Blvd,Sacramento,CA,95821,916-488-5400,38.6311894,-121.396736,2014-04-21,J1772
657,ELEC,CARCHARGING,16015 Cleveland St,Redmond,WA,98052,888-758-4389,47.6743736,-122.12716670000002,2014-08-11,NEMA520 J1772
658,ELEC,City of Renton - City Shops,3555 NE 2nd St,Renton,WA,98056,,47.4838573,-122.1717172,2014-06-03,J1772
659,ELEC,SAN BENITO CO.,2301 Technology Pkwy,Hollister,CA,95023,888-758-4389,36.8906402,-121.399023,2014-08-11,J1772
660,ELEC,BARKLEY VILLAGE,3005 Cinema Place,Bellingham,WA,98226,888-758-4389,48.7704459,-122.44709650000001,2014-08-11,J1772
661,ELEC,Kwik Trip #681,4400 O'Day Ave NE,St. Michael,MN,55376,763-497-2447,45.217558000000004,-93.598394,2014-05-02,NEMA520
662,ELEC,Kwik Trip #897,2033 North Ave,Sheboygan,WI,53083,920-458-6468,43.773885299999996,-87.7326999,2014-05-02,NEMA520
663,ELEC,UC DAVIS TAPS,1 Shields Ave,Davis,CA,95616,888-758-4389,38.5398037,-121.7550639,2014-08-11,NEMA520 J1772
664,ELEC,Union Station Garage L2,300 Massachusetts Ave NE,Washington,DC,20002,888-758-4389,38.89686857,-77.00604224,2013-11-30,NEMA520 J1772
665,E85,Break Time Convenience Store #3044,3000 W Truman Blvd,Jefferson City,MO,65109,573-893-4677,38.595621,-92.231066,2014-07-02,
666,E85,Fuel 24 - Cenex,1016 W Chestnut,Mason City,IL,62664,217-482-9620,40.202280200000004,-89.7128561,2013-10-31,
667,LPG,Northern Energy,100 Farmer St,Plains,MT,59859,406-826-3461  800-683-0538,47.4598624,-114.8813595,2014-08-05,
668,LPG,Pennsylvania Turnpike Harrison City Maintenance Facility,1012 Sandy Hill Rd,Irwin,PA,15642,,40.36486,-79.6782,2013-07-31,
669,ELEC,Springfield - Chamber of Commerce,101 South A Street,Springfield,OR,97477,888-998-2546,44.045409,-123.023556,2014-08-11,J1772
670,CNG,Kings County Yard,11827 S 11th Ave,Hanford,CA,93230,,36.3013443,-119.654762,2014-05-02,
671,LPG,Ferrellgas,712 N Robinson Dr,Robinson,TX,76706,817-596-0123,31.492626,-97.124207,2013-02-28,
672,BD,Fort Sill,Randolph Rd & Hand Rd,Fort Sill,OK,73503,,34.678808000000004,-98.426439,2014-02-05,
673,ELEC,South Mountain Community College,7050 South 24th Street,Phoenix,AZ,85042,888-998-2546,33.382744,-112.03443999999999,2014-08-11,J1772
674,ELEC,VALLEY MED CTR,400 S 43rd St,Renton,WA,98055,888-758-4389,47.442429600000004,-122.2139217,2014-08-11,J1772
675,ELEC,BAYER,8702-8798 Chemagro Rd,KCMO,MO,64120,888-758-4389,39.1242326,-94.47621140000001,2014-08-11,J1772
676,E85,Short Stop Quick Mart - Tesoro,4725 Quail Rd NE,Sauk Rapids,MN,56379,320-251-4144,45.582851,-94.066058,2014-04-04,
677,ELEC,Alexandria Real Estate - Owens St Parking Garage,1670 Owens Street,San Francisco,CA,94158,888-998-2546,37.767288,-122.3947369,2014-08-11,CHADEMO J1772
678,CNG,Waste Management - Altamont,10840 Altamont Pass Rd,Livermore,CA,94551,,37.748526,-121.64987099999999,2014-08-05,
679,ELEC,Lithia Nissan of Fresno,5580 N Blackstone Ave,Fresno,CA,93710,559-435-3500,36.818514,-119.78947099999999,2014-04-21,J1772
680,ELEC,Chandler Nissan,479 Highway 6 W,Oxford,MS,38655,,34.34172,-89.43799999999999,2014-07-03,J1772
681,E85,Citgo - Bittersweet Bell-Mart,12495 McKinley Hwy,Mishawaka,IN,46545,574-252-5102  574-546-2342,41.6849257,-86.10955940000001,2014-07-03,
682,ELEC,ZEROWASTE,685 Los Esteros Rd,San Jose,CA,95134,888-758-4389,37.4324797,-121.95293319999999,2014-08-11,J1772
683,LPG,Combined Energy Services,276 Broadway,Monticello,NY,12701,845-794-1210  845-794-6226,41.65146729999999,-74.67318220000001,2014-04-04,
684,ELEC,James River Air Conditioning,1905 Westmoreland St,Richmond,VA,23230,804-358-9333,37.578536,-77.48754,2012-12-31,J1772
685,ELEC,Viva Nissan,1310 N Zaragoza Rd,El Paso,TX,79936,915-629-5500,31.724949,-106.300771,2014-04-21,J1772
686,E85,Boondocks,228 N Highway 71,Arnolds Park,IA,51331,712-332-6062,43.3641602,-95.13522540000001,2014-04-04,
687,ELEC,CARCHARGING,1050 Connecticut Ave NW,Washington,DC,20036,888-758-4389,38.903243700000004,-77.0414326,2014-08-11,J1772
688,LPG,Gas Production Co Inc,8512 Howard City Edmore Rd,Vestaburg,MI,48891,989-268-5079,43.408270200000004,-84.92588769999998,2014-05-02,
689,ELEC,City of San Antonio - Thousand Oaks Library,4618 Thousand Oaks,San Antonio,TX,78233,888-469-5326,29.5454821,-98.40142,2012-11-25,NEMA520 J1772
690,LPG,U-Haul,18315 Shawley Dr,Hagerstown,MD,21740,301-790-1800,39.68898,-77.734904,2013-10-31,
691,ELEC,McGavock Nissan Abilene,3500 S Clack St,Abilene,TX,79606,325-695-2970,32.408654,-99.771637,2014-04-21,J1772
692,ELEC,Severn Building,5245 Greenbelt Road,College Park,MD,20740,800-663-5633,38.9980404,-76.9199156,2014-08-11,J1772
693,E85,Farmers Union Supply Co - Cenex C-Store,1615 N 6th St,Beatrice,NE,68310,402-223-2124,40.2820777,-96.7467165,2014-06-03,
694,ELEC,The Outlet Shoppes at Burlington ,448 Fashion Way,Burlington,WA,98233,888-833-2148,48.4561649,-122.33841899999999,2013-05-31,J1772 CHADEMO
695,ELEC,City of Seattle - Seattle Water Ops,2700 Airport Way S,Seattle,WA,98134,,47.579491,-122.32135749999999,2014-06-03,J1772
696,ELEC,Cedarbrook Lodge,18525 36th Ave South,Seatac,WA,98188,888-998-2546,47.437595,-122.28737,2014-08-11,J1772
697,ELEC,Johnson & Johnson Headquarters,1 Johnson & Johnson Plaza,New Brunswick,NJ,8933,888-998-2546,40.499537,-74.441643,2014-06-03,J1772
698,ELEC,Sheehy Nissan of Mechanicsville,6564 Mechanicsville Pike,Mechanicsville,VA,23111,804-417-1012,37.6131927,-77.3355689,2014-05-02,J1772
699,CNG,Picatinny Arsenal,3rd Ave,Picatinny Arsenal,NJ,7806,,40.941431,-74.570419,2013-12-31,
700,BD,Propel Fuels - Shell,9190 E Stockton Blvd,Elk Grove,CA,95624,916-686-6560,38.4242257,-121.39089080000001,2013-11-30,
701,E85,Pacific Pride - Interstate Oil Co,8221 Alpine Ave,Sacramento,CA,95826,530-662-5481  916-457-6572,38.536114000000005,-121.403604,2013-08-31,
702,ELEC,FUTURE O FLIGHT,8415 Paine Field Blvd,Mukilteo,WA,98275,888-758-4389,47.921924600000004,-122.28936770000001,2014-08-11,NEMA520 J1772
703,ELEC,Melvin Mark - Watertower,5331 SW Macadam Ave,Portland,OR,97239,888-998-2546,45.484618,-122.67665500000001,2014-08-11,J1772
704,ELEC,John Howard Nissan,1733 Mileground Rd,Morgantown,WV,26505,304-292-0171,39.6454419,-79.9261232,2014-04-21,J1772
705,E85,Fuel 24,1200 N Cheney St,Taylorville,IL,62568,217-824-3833,39.561823499999996,-89.30693670000001,2013-03-31,
706,ELEC,PARKMERCED,100 Font Blvd,San Francisco,CA,94132,888-758-4389,37.7151871,-122.47278590000002,2014-08-11,J1772
707,ELEC,Cutrubus Mitsubishi,1711 N Main St,Layton,UT,84041,877-236-9128,41.08559,-111.99799999999999,2012-08-25,J1772
708,ELEC,Rosen Nissan of Gurnee,7000 Grand Ave,Gurnee,IL,60031,847-856-8440,42.386763,-87.975497,2014-04-21,J1772
709,ELEC,Field Store BBQ & Grill,40203 U.S. 290,Waller,TX,77484,888-998-2546,30.067016100000004,-95.9197997,2014-08-11,J1772
710,ELEC,Universal City Hilton,333 Universal Terrace Pkwy,Universal City,CA,91608,818-506-2500,34.140601399999994,-118.3518,2012-12-31,
711,LPG,U-Haul,9435 N 19th Ave,Phoenix,AZ,85021,602-674-3167,33.573288,-112.099354,2013-09-30,
712,LPG,Cooke Rentals,825 W Lebanon St,Mount Airy,NC,27030,336-789-5068,36.519212100000004,-80.6199255,2014-07-02,
713,ELEC,NRG eVgo - Cracker Barrel Freedom Station,24400 Eastex Fwy,Kingwood,TX,77339,877-455-3833,30.067059999999998,-95.24708000000001,2014-07-03,NEMA520 J1772 CHADEMO
714,LPG,Titan Propane,865 Chapel Dr,Monett,MO,65708,417-624-0940,36.92797,-93.9002,2014-06-03,
715,ELEC,TOWN OF BABYLON,200 E. Sunrise Hwy,Lindenhurst,NY,11757,888-758-4389,40.7045401,-73.37486120000001,2014-08-11,NEMA520 J1772
716,CNG,Waste Management - Franklin Hauling,10627 S 27th St,Franklin,WI,53132,,42.85129999999999,-87.952466,2014-08-05,
717,ELEC,Firkins Nissan,1611 Cortez Rd W,Bradenton,FL,34207,941-755-1571,27.461855,-82.577737,2014-05-02,J1772
718,ELEC,Gilroy Nissan-Hyundai,400 Stutz Way,Gilroy,CA,95020,408-842-1777,36.9967619,-121.558621,2014-04-21,J1772
719,ELEC,Oakmont Service Plaza,200 Eastern Ave.,Verona,PA,15147,888-998-2546,40.523625,-79.815352,2014-08-11,J1772
720,BD,Federal Correctional Institution - Yankton,1016 Douglas Ave,Yankton,SD,57078,,42.8799561,-97.3919256,2014-08-05,
721,ELEC,Greater Hartford Transit District - Spruce Street Lot,1 Union Pl,Hartford,CT,6103,860-247-5329,41.7678481,-72.6815113,2013-09-25,NEMA515 J1772
722,ELEC,T&C,855 El Camino Real,Palo Alto,CA,94301,888-758-4389,37.438497600000005,-122.1573751,2014-08-11,J1772
723,E85,Speedway #8594,6700 Sylvania Ave,Sylvania,OH,43560,419-882-1986,41.69042,-83.70395490000001,2014-03-06,
724,ELEC,Garber Nissan,5450 Bay Rd,Saginaw,MI,48604,989-790-0120,43.487787100000006,-83.9743457,2014-04-21,J1772
725,LPG,U-Haul,1805 Massachusetts Ave,Lemon Grove,CA,91945,619-460-6370,32.724417700000004,-117.0396899,2014-05-02,
726,ELEC,BEVERLY HILLS,221 N Crescent Dr,Beverly Hills,CA,90210,888-758-4389,34.068905799999996,-118.39778500000001,2014-08-11,J1772
727,ELEC,BELLEVUE,701 143rd Ave NE,Bellevue,WA,98007,888-758-4389,47.616013,-122.150649,2014-08-11,J1772
728,LPG,Blossman Gas Inc,3918 Rockmart Hwy,Cedartown,GA,30125,770-684-7382,34.0055823,-85.1457306,2013-11-30,
729,LPG,Grapevine Colleyville Independent School District,3000 Mustang Dr,Grapevine,TX,76051,,32.9193738,-97.11397690000001,2013-12-31,
730,LPG,Suburban Propane,6459 US Highway 24 W,Remington,IN,47977,219-261-2332,40.76554,-87.166685,2014-07-03,
731,ELEC,Deep River Library,150 Main St,Deep River,CT,6417,860-526-6039,41.3865745,-72.4359069,2013-03-31,NEMA520 J1772
732,ELEC,Santa Clara City Library DCFC,2635 Homestead Drive,Santa Clara,CA,95051,888-998-2546,37.34062,-121.97321399999998,2014-08-11,CHADEMO
733,BD,CFN - Central Petroleum,755 NE 1st St,Bend,OR,97701,541-382-4751,44.057446399999996,-121.30630990000002,2014-03-06,
734,CNG,Washington Metropolitan Area Transit Authority (WMATA) - Shepherd Parkway Bus Facility,TBD,Washington,DC,20375,,38.826107,-77.0172233,2012-04-30,
735,ELEC,ROCHESTER NY,473-489 Main St E,Rochester,NY,14604,888-758-4389,43.15865,-77.59956940000002,2014-08-11,J1772
736,ELEC,CRESCENT LOT,505 Crescent Blvd,Glen Ellyn,IL,60137,888-758-4389,41.876296999999994,-88.06739040000001,2014-08-11,J1772
737,ELEC,Kwik Trip #806,320 Mineral Spring Rd,Owatonna,MN,55060,507-455-1541,44.0898739,-93.2187886,2014-05-02,NEMA520
738,LPG,INDOT - Shelbyville Maintenance Unit,76 E Rampart St,Shelbyville,IN,46176,,39.548206,-85.771863,2013-08-31,
739,E85,DJ's Travel Center,459 Custer Ave NE,Huron,SD,57350,605-352-7435,44.3687529,-98.1742203,2013-11-30,
740,ELEC,Bayview Thriftway,516 W 4th Ave,Olympia,WA,98501,360-352-4901,47.044919,-122.907576,2014-06-03,NEMA520
741,E85,Spinx #350,6899 Rivers Ave,North Charleston,SC,29406,843-735-5496,32.9203439,-80.03018999999998,2014-08-05,
742,ELEC,O'Hare Airport - Short Term Parking,10000 Bessie Coleman Dr,Chicago,IL,60666,,41.9812852,-87.8851447,2013-12-31,J1772
743,E85,National Electric Service Public Utility,1214 Church St,Nashville,TN,37246,,36.159379,-86.790645,2014-08-05,
744,HY,APCI CEC Award - Beverly Hills,1004 S. La Cienega Blvd.,Los Angeles,CA,90035,,34.05934,-118.3758128,2014-06-11,
745,LPG,Empiregas,12270 Highway 15 N,Hazard,KY,41727,606-436-1912  800-930-8727,37.39283,-83.2742,2014-07-02,
746,ELEC,Gresham - City Hall,1333 NW Eastman Parkway,Gresham,OR,97030,888-998-2546,45.506803999999995,-122.436103,2014-08-11,J1772
747,CNG,Love's Country Store #218,2530 E Noble Ave,Guthrie,OK,73044,405-260-0850,35.8797463,-97.4567078,2014-03-06,
748,CNG,Montgomery County Transit,16624 Crabbs Branch Way,Gaithersburg,MD,20855,,39.124303499999996,-77.16380699999999,2013-07-31,
749,ELEC,MERITAGE1,875 Bordeaux Way,Napa,CA,94558,888-758-4389,38.2463102,-122.2735862,2014-08-11,J1772
750,LPG,Ferrellgas,1802 NW 3rd St,Grand Rapids,MN,55744,218-326-1291 800-450-5701,47.235802899999996,-93.55633940000001,2014-03-06,
751,ELEC,Providence - Colby Campus,1800 14th St.,Everett,WA,98201,888-998-2546,47.999006,-122.205272,2014-08-11,J1772
752,CNG,Los Angeles County Metropolitan Transportation Authority - Division 3,630 W Ave 28,Los Angeles,CA,90065,,34.0876763,-118.22386850000001,2014-05-02,
753,ELEC,WHIRLPOOL,600 W. Main Street,Benton Harbor,MI,49022,888-758-4389,42.112675,-86.468162,2014-08-11,NEMA520 J1772
754,BD,Pacific Pride,3037 NW 29th Ave,Portland,OR,97210,800-950-3835,45.54468860000001,-122.7110986,2014-03-06,
755,LPG,McCraw Oil and Propane,1401 W Main St,Antlers,OK,74523,580-298-2561,34.232082399999996,-95.60648420000001,2014-08-05,
756,E85,Propel Fuels - Chevron,350 Grand Ave,Oakland,CA,94610,510-835-2530,37.809238,-122.25566200000002,2013-11-30,
757,ELEC,Paul Miller Ford,975 E New Circle Rd,Lexington,KY,40505,866-572-6043,38.0401621,-84.4542985,2013-04-30,J1772
758,E85,Kum & Go #846,100 Holiday Ln,Locust Grove,OK,74352,918-479-2210,36.1896841,-95.1606946,2014-03-06,
759,ELEC,McGavock Nissan,4817 S Loop 289,Lubbock,TX,79424,806-783-8484,33.531797999999995,-101.91503,2014-04-21,J1772
760,E85,Kwik Trip #753,380 Sandstone Dr NW,Eyota,MN,55934,507-545-2120,43.997706,-92.24767,2014-05-02,
761,ELEC,Spinx,1619 Decker Blvd,Columbia,SC,29206,888-758-4389  803-782-4151,34.042305999999996,-80.93906,2014-06-03,NEMA520 J1772
762,ELEC,1MCD HQ,605 Stewart Ave,Garden City,NY,11530,888-758-4389,40.7301177,-73.6142431,2014-08-11,J1772
763,CNG,University of Northwestern Ohio,1755 Hartzler Rd,Lima,OH,45805,,40.764088,-84.1563089,2014-03-06,
764,ELEC,Enterprise Rent-A-Car,284 Mallory Station Rd,Franklin,TN,37067,,35.956234,-86.827326,2014-04-07,J1772
765,LPG,Flying J Travel Plaza 685,3150 39th St SW,Fargo,ND,58104,701-282-7766,46.83371289999999,-96.8458188,2014-07-02,
766,E85,Kum & Go #658,6125 Barnes Rd,Colorado Springs,CO,80922,719-219-0685,38.8948263,-104.7145123,2014-03-06,
767,E85,Kwik Trip #455,100 W 9th St N,Ladysmith,WI,54848,715-532-3117,45.4641585,-91.1111437,2014-05-02,
768,CNG,Clean Energy - PS Energy - East Point,2192 Sylvan Rd,East Point,GA,30344,866-809-4869,33.6944411,-84.41829670000001,2014-07-02,
769,E85,Road Ranger #237,909 E Roosevelt Rd,Lombard,IL,60148,815-239-6028,41.860475,-87.994817,2014-06-03,
770,LPG,P & D Petroleum,602 Tatum Hwy,Lovington,NM,88260,575-396-4822,32.990174800000005,-103.3174877,2013-02-28,
771,ELEC,South Carolina Electric Co-op,808 Knox Abbott Dr,Cayce,SC,29033,843-743-6736,33.982843100000004,-81.061524,2012-07-31,J1772
772,ELEC,STATION1,Western Army Aviation Training Site,Marana,AZ,85653,888-758-4389,34.0808966,-111.0735581,2014-08-11,J1772
773,LPG,AmeriGas,522 S Vermont St,Palatine,IL,60067,847-359-6450,42.100654999999996,-88.038235,2013-02-28,
774,ELEC,CITY OF SEATAC,4800 S 188th St,SeaTac,WA,98188,888-758-4389,47.4338361,-122.27260430000001,2014-08-11,NEMA520 J1772
775,ELEC,"Walgreens - Bel Air, MD #11999",1927 Emmorton Rd,Bel Air,MD,21015,800-663-5633,39.5019452,-76.3265292,2014-08-11,J1772
776,CNG,Elk Grove School District,8421 Gerber Rd,Sacramento,CA,95828,,38.4817493,-121.39217020000001,2014-05-02,
777,ELEC,Southpark Garage - NPM,914 SW Taylor,Portland,OR,97205,888-998-2546,45.518463,-122.682247,2014-08-11,J1772
778,LPG,Mission 76,28900 Mission Blvd,Hayward,CA,94544,510-582-3995,37.63477,-122.05188700000001,2014-05-02,
779,LPG,Geldbach Petroleum Co,100 Beckett Memorial Dr,Valley Park,MO,63088,636-225-3601  800-798-4107,38.553289899999996,-90.489053,2014-06-03,
780,ELEC,Main Street Video,110 N Main St,Le Sueur,MN,56058,612-636-6222,44.461496200000006,-93.91538809999999,2014-03-06,NEMA520
781,LNG,Clean Energy - Shreveport Flying J #665,9510 Greenwood Rd,Greenwood,LA,71033,866-809-4869,32.444772,-93.97901,2014-04-04,
782,LPG,V-1 Propane,817 N 10th St,Worland,WY,82401,307-347-9204,44.024173,-107.9558928,2014-03-06,
783,ELEC,Ramsey Nissan,401 Route 17 S,Upper Saddle River,NJ,7458,201-825-4040,41.053468,-74.12018499999999,2014-04-21,J1772
784,E85,Qik-n-EZ #60,1510 E Vernon Ave,Normal,IL,61761,309-452-8515,40.503215999999995,-88.954796,2013-10-31,
785,ELEC,Weseloh Nissan,33633 Camino Capistrano,San Juan Capistrano,CA,92675,949-234-4900,33.4747119,-117.676201,2014-04-21,J1772
786,ELEC,Bellevue College - Garage,"3000 Landerholm Cir SE, Kelsy Creek Rd & Tye River Rd",Bellevue,WA,98007,888-998-2546,47.585654999999996,-122.14728400000001,2014-08-11,J1772
787,ELEC,GEORGIA STATE,11-33 Auditorium Pl SE,Atlanta,GA,30303,888-758-4389,33.75338729999999,-84.3838186,2014-08-11,J1772
788,BD,Vance Air Force Base,Scott Dr,Enid,OK,73701,,36.339742,-97.916156,2014-08-05,
789,LPG,Snyder Propane,280 State Highway 80,Fort Plain,NY,13339,518-993-2626  800-721-0313,42.928875299999994,-74.6640579,2013-02-28,
790,ELEC,Hall Nissan - Virginia Beach,3769 Booney Rd,Virginia Beach,VA,23452,757-631-7600,36.838989,-76.10243299999999,2014-05-02,J1772
791,ELEC,Macy's #71-555 - Otay Ranch Town Center - Chula Vista CA,2015 Birch Road,Chula Vista,CA,91915,888-998-2546,32.621809999999996,-116.9658995,2014-08-11,J1772
792,E85,Kent's Korner #25 - Exxon,111 Jefferson Davis Hwy,Aiken,SC,29801,803-649-1180,33.5614333,-81.7792193,2013-05-31,
793,LPG,Ferrellgas,1072 Fourche Ave,Perryville,AR,72126,501-889-5144,35.013566,-92.79828,2014-04-04,
794,ELEC,MOLLIE STONES,164 S California Ave,Palo Alto,CA,94306,888-758-4389,37.428710200000005,-122.14315649999999,2014-08-11,J1772
795,E85,Super Pantry #52,1511 N Prospect Ave,Champaign,IL,61820,217-355-3354,40.131707,-88.25837299999998,2014-05-02,
796,ELEC,Purdue University,812 3rd St,West Lafayette,IN,47907,855-443-3873,40.427761700000005,-86.91626070000001,2014-04-04,J1772
797,CNG,Trillium CNG - Honda Parkway,24000 Honda Pkwy,Marysville,OH,43040,800-920-1166,40.278754,-83.508379,2014-08-05,
798,E85,Evergreen FS Farmtown,1808 Morrissey Dr,Bloomington,IL,61704,309-662-9321,40.4540189,-88.9678776,2013-10-31,
799,LPG,INDOT - Martinsville Maintenance Unit,1188 Lenvoil Rd,Martinsville,IN,46151,,39.3946172,-86.3738635,2013-08-31,
800,ELEC,WALNUT CREEK,1666 N. Main street,Walnut Creek,CA,94596,888-758-4389,37.900982899999995,-122.06128490000002,2014-08-11,J1772
801,ELEC,VEIC,128 Lakeside Ave,Burlington,VT,5401,888-758-4389,44.4617544,-73.21784749999998,2014-08-11,J1772
802,ELEC,NATIONAL GRID,724 W Center St,West Bridgewater,MA,2379,888-758-4389,42.0120049,-71.0499115,2014-08-11,J1772
803,E85,Thorntons #400,1600 S US 31,Greenwood,IN,46143,317-882-2869,39.5938771,-86.1032537,2014-07-02,
804,LNG,Blu LNG - Blu Fuel Stop,2222 136th Ave E,Sumner,WA,98390,801-977-7252,47.236945,-122.24979599999999,2014-05-02,
805,ELEC,Wagon Wheel Restaurant,227 NW Garden Valley Blvd,Roseburg,OR,97470,888-833-2148  541-672-7555,43.226537,-123.35580300000001,2014-05-02,J1772 CHADEMO
806,ELEC,Lot 105 - Joyce Kilmer Avenue,79 Joyce Kilmer Ave,Piscataway Township,NJ,8854,888-998-2546,40.523407,-74.434016,2014-08-11,J1772
807,ELEC,Clear Lake Nissan,2150 Gulf Fwy,League City,TX,77573,281-557-5300,29.485334,-95.10186999999999,2014-04-21,J1772
808,ELEC,Boucher Nissan - Waukesha,1451 E Moreland Blvd,Waukesha,WI,53186,262-542-5500,43.024353000000005,-88.20645999999999,2014-04-21,J1772
809,ELEC,HP PALO ALTO,3126-3202 Hanover St,Palo Alto,CA,94304,888-758-4389,37.41202620000001,-122.1464912,2014-08-11,J1772
810,LPG,Arundel Gas and Water Conditioning,3177 Solomons Island Rd,Edgewater,MD,21037,410-956-2400,38.933916,-76.56640800000002,2014-03-06,
811,E85,Alabama State Motor Pool,386 S Ripley St,Montgomery,AL,36104,,32.372589000000005,-86.298802,2012-11-30,
812,ELEC,Ground Round Grill & Bar - Tesla,1290 Ryans Rd,Worthington,MN,56187,877-798-3752,43.634433,-95.595456,2014-04-21,TESLA
813,ELEC,BORGESS HEALTH,1521 Gull Rd,Kalamazoo,MI,49048,888-758-4389,42.3077489,-85.56174809999999,2014-08-11,NEMA520 J1772
814,ELEC,Rivers Casino,3000 S River Rd,Des Plains,IL,60018,,41.99908129999999,-87.86417840000001,2013-07-31,J1772
815,LPG,Ferrellgas,26585 Highway 281 N,San Antonio,TX,78260,210-661-6700,29.694290000000002,-98.45297099999999,2013-02-28,
816,ELEC,Mayo Clinic - Shea Blvd.,"13400 E. Shea Blvd, (Parking Garage Level 1)",Scottsdale,AZ,85259,888-998-2546,33.5857641,-111.7935598,2014-08-11,J1772
817,E85,Cenex - Heart of Iowa Co-op,633 Market Ave,Story City,IA,50248,515-733-4358,42.18877,-93.600452,2014-04-04,
818,E85,Speedway #5064,2920 Shroyer Rd,Kettering,OH,45419,937-299-4640,39.70427,-84.16194,2014-03-06,
819,ELEC,CARCHARGING,214 W 88th St,New York,NY,10024,888-758-4389,40.78921810000001,-73.9749593,2014-08-11,NEMA520 J1772
